Feature Name,Clean Feature Name,Target,Diameter,Center Latitude,Center Longitude,Coordinate System,Feature Type,Approval Status,Origin
8 Homeward,8 Homeward,Moon,12.52,-12.02,97.09,"Planetographic, +East, -180 - 180","Crater, craters",Approved,"Crater visible in the iconic “Earthrise” colour photograph, taken aboard Apollo 8 by W. A. Anders on December 24, 1968, symbolizes the safe return to Earth of Apollo 8. The crater was previously designated Ganskiy (Hansky) M."
Abbe,Abbe,Moon,63.98,-57.58,174.77,"Planetographic, +East, -180 - 180","Crater, craters",Approved,"Ernst Karl; German optician, physicist, astronomer (1840-1905)."
Abbot,Abbot,Moon,10.40,5.56,54.74,"Planetographic, +East, -180 - 180","Crater, craters",Approved,Charles Greeley; American astrophysicist (1872-1973).
Abel,Abel,Moon,137.35,-34.63,85.78,"Planetographic, +East, -180 - 180","Crater, craters",Approved,Niels Henrik; Norwegian mathematician (1802-1829).
Abenezra,Abenezra,Moon,43.19,-20.99,11.89,"Planetographic, +East, -180 - 180","Crater, craters",Approved,"Abraham ben Meir Ibn Ezra; Spanish mathematician, astronomer (1092-1164/1167)."
Abetti,Abetti,Moon,1.60,20.11,27.82,"Planetographic, +East, -180 - 180","Crater, craters",Approved,Antonio; Italian astronomer (1846-1928); Giorgio; Italian astronomer (1882-1982).
Abulfeda,Abulfeda,Moon,62.23,-13.87,13.91,"Planetographic, +East, -180 - 180","Crater, craters",Approved,Ismail Ibn Abū al-Fidā; Syrian geographer (1273-1331).
Abul Wáfa,Abul Wafa,Moon,54.18,0.96,116.63,"Planetographic, +East, -180 - 180","Crater, craters",Approved,"Abū al-Wafā al-Būzajāni; Persian mathematician, astronomer (940-998)."
Acosta,Acosta,Moon,13.06,-5.65,60.14,"Planetographic, +East, -180 - 180","Crater, craters",Approved,"Cristobal; Portuguese doctor, natural historian (1515-1580)."
Adams,Adams,Moon,63.27,-31.89,68.39,"Planetographic, +East, -180 - 180","Crater, craters",Approved,John Couch; British astronomer (1819-1892); Charles Hitchcock; American astronomer (1868-1951); Walter Sydney; American astronomer (1876-1956).
Aepinus,Aepinus,Moon,16.74,87.96,-109.69,"Planetographic, +East, -180 - 180","Crater, craters",Approved,Franz Maria Ulrich Theodor Hoch; German-Russian astronomer (1724-1802).
Agatharchides,Agatharchides,Moon,51.98,-19.85,-31.11,"Planetographic, +East, -180 - 180","Crater, craters",Approved,Agatharchides of Cnidos; Greek geographer (c. 116 B.C.).
Agrippa,Agrippa,Moon,43.75,4.10,10.47,"Planetographic, +East, -180 - 180","Crater, craters",Approved,Greek astronomer (unkn-fl. A.D. 92).
Airy,Airy,Moon,38.90,-18.14,5.61,"Planetographic, +East, -180 - 180","Crater, craters",Approved,George Biddell; British astronomer (1801-1892).
Aitken,Aitken,Moon,129.69,-16.44,172.96,"Planetographic, +East, -180 - 180","Crater, craters",Approved,Robert Grant; American astronomer (1864-1951).
Akis,Akis,Moon,2.28,20.01,-31.76,"Planetographic, +East, -180 - 180","Crater, craters",Approved,Greek female name.
Alan,Alan,Moon,1.44,-10.93,-6.17,"Planetographic, +East, -180 - 180","Crater, craters",Approved,Irish male name.
Al-Bakri,Al Bakri,Moon,12.21,14.34,20.25,"Planetographic, +East, -180 - 180","Crater, craters",Approved,Abū Ubayd Abdallāh Ibn abd al-Azīz Ibn Muhammad; Spanish-Arab geographer (1010-1094).
Albategnius,Albategnius,Moon,130.84,-11.24,4.01,"Planetographic, +East, -180 - 180","Crater, craters",Approved,"Muhammed Ben Geber Al-Battānī; Arab astronomer, mathematician (c. 858-929)."
Albert,Albert,Moon,0.10,38.32,-35.01,"Planetographic, +East, -180 - 180","Crater, craters",Approved,Male name of German origin (Lunokhod-1 landing site feature).
Al-Biruni,Al Biruni,Moon,80.41,18.07,92.62,"Planetographic, +East, -180 - 180","Crater, craters",Approved,"Abū ar-Rayhān Muhammad ibn Ahmad al-Birūnī; Persian astronomer, mathematician, geographer (973-1048)."
Alden,Alden,Moon,111.44,-23.51,111.11,"Planetographic, +East, -180 - 180","Crater, craters",Approved,Harold Lee; American astronomer (1890-1964).
Alder,Alder,Moon,82.12,-48.63,-177.88,"Planetographic, +East, -180 - 180","Crater, craters",Approved,Kurt; German organic chemist; Nobel laureate (1902-1958).
Aldrin,Aldrin,Moon,2.80,1.41,22.09,"Planetographic, +East, -180 - 180","Crater, craters",Approved,"Edwin Eugene, Jr. (“;Buzz“;); American astronaut (1930-Live)."
Alekhin,Alekhin,Moon,74.82,-67.94,-131.85,"Planetographic, +East, -180 - 180","Crater, craters",Approved,"Nikolaj Pavlovich; Soviet rocket designer, engineer (1913-1964)."
Alexander,Alexander,Moon,94.80,40.25,13.69,"Planetographic, +East, -180 - 180","Crater, craters",Approved,"Alexander the Great, of Macedon; Greek geographer (356-323 B.C.)."
Alfraganus,Alfraganus,Moon,20.52,-5.42,18.97,"Planetographic, +East, -180 - 180","Crater, craters",Approved,"Al-Fargani, Abu'l-'Abbās Ahmad Ibn Muhammad Ibn Kathīr; Persian astronomer (unkn-c. 840)."
Alhazen,Alhazen,Moon,34.65,15.91,71.83,"Planetographic, +East, -180 - 180","Crater, craters",Approved,Abū Ali Al-Hasan Ibn Al Haitham; Iraqi mathematician (987-1038).
Aliacensis,Aliacensis,Moon,79.65,-30.60,5.13,"Planetographic, +East, -180 - 180","Crater, craters",Approved,"D'Ailly, Pierre; French geographer (1350-1420)."
Al-Khwarizmi,Al Khwarizmi,Moon,56.25,7.02,107.01,"Planetographic, +East, -180 - 180","Crater, craters",Approved,Abū Ja'far Muhammad Ibn Mūsā; Iraqi mathematician (unkn-after 847).
Almanon,Almanon,Moon,47.76,-16.85,15.14,"Planetographic, +East, -180 - 180","Crater, craters",Approved,Abdalla Al Mamun; Persian astronomer (786-833).
Al-Marrakushi,Al Marrakushi,Moon,8.57,-10.45,55.77,"Planetographic, +East, -180 - 180","Crater, craters",Approved,"Abū `Ali al-Hasan Ibn `Ali al-Marrakushi; Moroccan astronomer, mathematician (fl. c. A.D. 1281/1282)."
Aloha,Aloha,Moon,2.55,29.79,-53.88,"Planetographic, +East, -180 - 180","Crater, craters",Approved,Hawaiian female first name.
Alpetragius,Alpetragius,Moon,40.02,-16.05,-4.51,"Planetographic, +East, -180 - 180","Crater, craters",Approved,"Al-Bitrūjī Al-Ishbīlī, Abū Ishāq; Spanish astronomer (unkn-c. 1100)."
Alphonsus,Alphonsus,Moon,110.54,-13.39,-2.85,"Planetographic, +East, -180 - 180","Crater, craters",Approved,Alfonso X (El Sabio); Spanish astronomer (1221-1284).
Alter,Alter,Moon,64.73,18.74,-107.80,"Planetographic, +East, -180 - 180","Crater, craters",Approved,"Dinsmore; American astronomer, meteorologist (1888-1968)."
Ameghino,Ameghino,Moon,9.20,3.30,57.04,"Planetographic, +East, -180 - 180","Crater, craters",Approved,Fiorino (or Florentino); Argentine paleontologist and anthropologist (1854-1911).
Amici,Amici,Moon,52.03,-10.06,-172.23,"Planetographic, +East, -180 - 180","Crater, craters",Approved,"Giovanni Battista; Italian astronomer, optician (1786-1863)."
Ammonius,Ammonius,Moon,8.55,-8.52,-0.83,"Planetographic, +East, -180 - 180","Crater, craters",Approved,Greek philosopher (unkn.-c. A.D. 517-526).
Amontons,Amontons,Moon,2.47,-5.34,46.78,"Planetographic, +East, -180 - 180","Crater, craters",Approved,Guillaume; French physicist (1663-1705).
Amundsen,Amundsen,Moon,103.39,-84.44,83.07,"Planetographic, +East, -180 - 180","Crater, craters",Approved,Roald Engelbregt Gravning; Norwegian explorer (1872-1928).
Anaxagoras,Anaxagoras,Moon,51.90,73.48,-10.17,"Planetographic, +East, -180 - 180","Crater, craters",Approved,Greek astronomer (500-428 B.C.).
Anaximander,Anaximander,Moon,68.71,66.97,-51.44,"Planetographic, +East, -180 - 180","Crater, craters",Approved,Greek astronomer (c. 611-547 B.C.).
Anaximenes,Anaximenes,Moon,81.12,72.49,-44.98,"Planetographic, +East, -180 - 180","Crater, craters",Approved,Greek astronomer (585-528 B.C.).
Anděl,Andel,Moon,32.93,-10.41,12.38,"Planetographic, +East, -180 - 180","Crater, craters",Approved,Karel; Czechoslovakian astronomer (1884-1948).
Anders,Anders,Moon,41.33,-41.31,-143.30,"Planetographic, +East, -180 - 180","Crater, craters",Approved,William Alison; American astronaut (1933-Live).
Anders' Earthrise,Anders Earthrise,Moon,40.15,-11.73,100.47,"Planetographic, +East, -180 - 180","Crater, craters",Approved,"Crater visible in the foreground of the iconic “Earthrise” colour photograph, taken aboard Apollo 8 by W. A. Anders on December 24, 1968, showing the Earth and part of the Moon’s surface. The crater was previously designated Pasteur T."
Anderson,Anderson,Moon,105.33,15.50,170.79,"Planetographic, +East, -180 - 180","Crater, craters",Approved,John August; American astronomer (1876-1959).
Andersson,Andersson,Moon,13.42,-49.95,-95.46,"Planetographic, +East, -180 - 180","Crater, craters",Approved,Leif Erland; American astronomer (1943-1979).
Andronov,Andronov,Moon,16.57,-22.68,146.11,"Planetographic, +East, -180 - 180","Crater, craters",Approved,Aleksandr Aleksandrovich; Soviet physicist (1901-1952).
Ango,Ango,Moon,0.87,20.48,-32.34,"Planetographic, +East, -180 - 180","Crater, craters",Approved,African male name.
Angström,Angstrom,Moon,9.55,29.90,-41.67,"Planetographic, +East, -180 - 180","Crater, craters",Approved,Anders Jonas; Swedish physicist (1814-1874).
Ann,Ann,Moon,2.12,25.11,-0.05,"Planetographic, +East, -180 - 180","Crater, craters",Approved,Hebrew female name.
Annegrit,Annegrit,Moon,1.29,29.43,-25.64,"Planetographic, +East, -180 - 180","Crater, craters",Approved,German female name.
Ansgarius,Ansgarius,Moon,91.42,-12.92,79.72,"Planetographic, +East, -180 - 180","Crater, craters",Approved,St. Ansgar; German theologian (801-864).
Antoniadi,Antoniadi,Moon,137.92,-69.30,-173.06,"Planetographic, +East, -180 - 180","Crater, craters",Approved,Eugène Michael; Turkish-born French astronomer (1870-1944).
Anuchin,Anuchin,Moon,62.14,-48.85,101.66,"Planetographic, +East, -180 - 180","Crater, craters",Approved,Dimitrii Nikolaevich; Russian geographer (1843-1923).
Anville,Anville,Moon,10.26,1.84,49.51,"Planetographic, +East, -180 - 180","Crater, craters",Approved,Jean-Baptiste Bourguignon; French cartographer (1697-1782).
Apianus,Apianus,Moon,63.44,-26.96,7.87,"Planetographic, +East, -180 - 180","Crater, craters",Approved,"Bienewitz, Peter; German mathematician, astronomer (1495-1552)."
Apollo,Apollo,Moon,524.23,-35.69,-151.48,"Planetographic, +East, -180 - 180","Crater, craters",Approved,Named to honor Apollo missions.
Apollonius,Apollonius,Moon,50.66,4.51,60.96,"Planetographic, +East, -180 - 180","Crater, craters",Approved,Apollonius of Perga; Greek mathematician (c. 262-190 B.C.).
Appleton,Appleton,Moon,64.59,37.05,158.17,"Planetographic, +East, -180 - 180","Crater, craters",Approved,Sir Edward Victor; British physicist; Nobel laureate (1892-1965).
Arago,Arago,Moon,25.51,6.15,21.43,"Planetographic, +East, -180 - 180","Crater, craters",Approved,Dominique Francois Jean; French astronomer (1786-1853).
Aratus,Aratus,Moon,10.23,23.58,4.51,"Planetographic, +East, -180 - 180","Crater, craters",Approved,Aratus of Soli; Greek astronomer (c. 310-240/239 B.C.).
Archimedes,Archimedes,Moon,81.04,29.72,-3.99,"Planetographic, +East, -180 - 180","Crater, craters",Approved,"Greek physicist, mathematician (c. 287-212 B.C.)."
Archytas,Archytas,Moon,31.95,58.87,4.99,"Planetographic, +East, -180 - 180","Crater, craters",Approved,Greek mathematician (428-347 B.C. ?).
Argelander,Argelander,Moon,33.72,-16.55,5.80,"Planetographic, +East, -180 - 180","Crater, craters",Approved,Friedrich Wilhelm August; German astronomer (1799-1875).
Ariadaeus,Ariadaeus,Moon,10.40,4.55,17.28,"Planetographic, +East, -180 - 180","Crater, craters",Approved,Philip III of Macedonia; chronologer (c. 358-317 B.C.).
Aristarchus,Aristarchus,Moon,39.99,23.73,-47.49,"Planetographic, +East, -180 - 180","Crater, craters",Approved,Greek astronomer (310-230 B.C. ?).
Aristillus,Aristillus,Moon,54.37,33.88,1.21,"Planetographic, +East, -180 - 180","Crater, craters",Approved,Greek astronomer (fl. c. 280 B.C.).
Aristoteles,Aristoteles,Moon,87.57,50.24,17.32,"Planetographic, +East, -180 - 180","Crater, craters",Approved,"Greek astronomer, philosopher (383-322 B.C.)."
Armiński,Arminski,Moon,26.76,-16.36,154.22,"Planetographic, +East, -180 - 180","Crater, craters",Approved,Franciszek; Polish astronomer (1789-1848). (Spelling changed from Armínski.)
Armstrong,Armstrong,Moon,4.21,1.35,24.94,"Planetographic, +East, -180 - 180","Crater, craters",Approved,Neil Alden; American astronaut (1930-2012).
Arnold,Arnold,Moon,93.13,66.98,35.83,"Planetographic, +East, -180 - 180","Crater, craters",Approved,Christoph; German astronomer (1650-1695).
Arrhenius,Arrhenius,Moon,40.93,-55.58,-91.45,"Planetographic, +East, -180 - 180","Crater, craters",Approved,Svante August; Swedish chemist; Nobel laureate (1859-1927).
Artamonov,Artamonov,Moon,62.45,25.44,103.79,"Planetographic, +East, -180 - 180","Crater, craters",Approved,Nikolaj N.; Soviet rocket scientist (1906-1965).
Artem'ev,Artem ev,Moon,66.39,10.40,-145.22,"Planetographic, +East, -180 - 180","Crater, craters",Approved,Vladimir Andreevich; Soviet rocket scientist (1885-1962).
Artemis,Artemis,Moon,2.28,25.03,-25.36,"Planetographic, +East, -180 - 180","Crater, craters",Approved,Greek female first name.
Artsimovich,Artsimovich,Moon,7.96,27.61,-36.63,"Planetographic, +East, -180 - 180","Crater, craters",Approved,Lev Andreevich; Soviet physicist (1909-1973).
Aryabhata,Aryabhata,Moon,21.89,6.20,35.17,"Planetographic, +East, -180 - 180","Crater, craters",Approved,"Aryabhata I; Indian astronomer, mathematician (476-c.550)."
Arzachel,Arzachel,Moon,96.99,-18.26,-1.93,"Planetographic, +East, -180 - 180","Crater, craters",Approved,Al-Zarqālī; Spanish-Arabic astronomer (died 1100).
Asada,Asada,Moon,12.37,7.25,49.90,"Planetographic, +East, -180 - 180","Crater, craters",Approved,Goryu; Japanese astronomer (1734-1799).
Asclepi,Asclepi,Moon,40.56,-55.19,25.52,"Planetographic, +East, -180 - 180","Crater, craters",Approved,Giuseppe Maria; Italian astronomer (1706-1776).
Ashbrook,Ashbrook,Moon,157.68,-81.10,-110.58,"Planetographic, +East, -180 - 180","Crater, craters",Approved,Joseph; American astronomer (1918-1980).
Aston,Aston,Moon,44.48,32.77,-87.68,"Planetographic, +East, -180 - 180","Crater, craters",Approved,"Francis William; British chemist, physicist; Nobel laureate (1877-1945)."
Atlas,Atlas,Moon,88.12,46.74,44.38,"Planetographic, +East, -180 - 180","Crater, craters",Approved,Mythological Greek Titan.
Atwood,Atwood,Moon,28.64,-5.88,57.78,"Planetographic, +East, -180 - 180","Crater, craters",Approved,"George; British mathematician, physicist (1746-1807)."
Autolycus,Autolycus,Moon,38.88,30.68,1.49,"Planetographic, +East, -180 - 180","Crater, craters",Approved,Autolycus of Pitane; Greek astronomer (fl. c. 310 B.C.).
Auwers,Auwers,Moon,19.64,15.00,17.12,"Planetographic, +East, -180 - 180","Crater, craters",Approved,Georg Friedrich Julius Arthur; German astronomer (1838-1915).
Auzout,Auzout,Moon,32.92,10.21,64.01,"Planetographic, +East, -180 - 180","Crater, craters",Approved,"Adrien; French astronomer, physicist (1622-1691)."
Avery,Avery,Moon,10.73,-1.32,81.37,"Planetographic, +East, -180 - 180","Crater, craters",Approved,Oswald Theodore; Canadian doctor (1877-1955).
Avicenna,Avicenna,Moon,72.99,39.63,-97.28,"Planetographic, +East, -180 - 180","Crater, craters",Approved,Abu Ali Al-Hussein Ibn Abdallah; Persian doctor (980-1037).
Avogadro,Avogadro,Moon,129.84,63.21,165.36,"Planetographic, +East, -180 - 180","Crater, craters",Approved,Amedeo (Conte Di Quarengna); Italian physicist (1776-1856).
Azophi,Azophi,Moon,47.54,-22.19,12.70,"Planetographic, +East, -180 - 180","Crater, craters",Approved,"Al-Sufi, Abderrahman; Persian astronomer (903-986)."
Baade,Baade,Moon,57.85,-44.75,-82.03,"Planetographic, +East, -180 - 180","Crater, craters",Approved,Wilhelm Heinrich Walter; American astronomer (1893-1960).
Babakin,Babakin,Moon,19.15,-20.81,123.26,"Planetographic, +East, -180 - 180","Crater, craters",Approved,Georgii Nikolaevich; Soviet space scientist (1914-1971).
Babbage,Babbage,Moon,146.56,59.56,-57.38,"Planetographic, +East, -180 - 180","Crater, craters",Approved,Charles; British mathematician (1792-1871).
Babcock,Babcock,Moon,95.28,4.13,94.14,"Planetographic, +East, -180 - 180","Crater, craters",Approved,"Harold Delos; American astronomer, physicist (1882-1968)."
Back,Back,Moon,34.63,1.20,80.67,"Planetographic, +East, -180 - 180","Crater, craters",Approved,Ernst Emil Alexander; German physicist (1881-1959).
Backlund,Backlund,Moon,75.46,-16.22,103.35,"Planetographic, +East, -180 - 180","Crater, craters",Approved,Jöns Oskar; Russian astronomer (1846-1916).
Baco,Baco,Moon,65.31,-51.04,19.10,"Planetographic, +East, -180 - 180","Crater, craters",Approved,"Bacon, Roger; British natural philosopher, optician (c. 1214-c. 1294)."
Baillaud,Baillaud,Moon,89.44,74.61,37.35,"Planetographic, +East, -180 - 180","Crater, craters",Approved,(Édouard) Benjamin; French astronomer (1848-1934).
Bailly,Bailly,Moon,300.56,-66.82,-68.90,"Planetographic, +East, -180 - 180","Crater, craters",Approved,Jean Sylvain; French astronomer (1736-1793).
Baily,Baily,Moon,25.68,49.78,30.56,"Planetographic, +East, -180 - 180","Crater, craters",Approved,Francis; British astronomer (1774-1844).
Balandin,Balandin,Moon,11.81,-18.94,152.58,"Planetographic, +East, -180 - 180","Crater, craters",Approved,Aleksey Aleksandrovich; Soviet chemist (1898-1967).
Balboa,Balboa,Moon,69.19,19.24,-83.31,"Planetographic, +East, -180 - 180","Crater, craters",Approved,Vasco Nuñez de; Spanish explorer (1475-1519).
Baldet,Baldet,Moon,55.76,-53.32,-151.96,"Planetographic, +East, -180 - 180","Crater, craters",Approved,Fernand; French astronomer (1885-1964).
Ball,Ball,Moon,40.31,-35.92,-8.39,"Planetographic, +East, -180 - 180","Crater, craters",Approved,William; British astronomer (unkn-1690).
Ballet,Ballet,Moon,0.01,20.17,30.57,"Planetographic, +East, -180 - 180","Crater, craters",Approved,"Astronaut-named feature, Apollo 17 site."
Balmer,Balmer,Moon,136.30,-20.27,70.22,"Planetographic, +East, -180 - 180","Crater, craters",Approved,"Johann Jakob; Swiss mathematician, physician (1825-1898)."
Banachiewicz,Banachiewicz,Moon,99.09,5.28,80.01,"Planetographic, +East, -180 - 180","Crater, craters",Approved,"Tadeusz; Polish astronomer, mathematician (1882-1954)."
Bancroft,Bancroft,Moon,12.50,28.07,-6.43,"Planetographic, +East, -180 - 180","Crater, craters",Approved,Wilder Dwight; American chemist (1867-1953).
Bandfield,Bandfield,Moon,1.00,-5.40,90.77,"Planetographic, +East, -180 - 180","Crater, craters",Approved,Joshua; American planetary scientist (1974-2019).
Banting,Banting,Moon,5.15,26.58,16.43,"Planetographic, +East, -180 - 180","Crater, craters",Approved,Sir Frederick Grant; Canadian doctor; Nobel laureate (1891-1941).
Barbier,Barbier,Moon,65.38,-23.85,157.93,"Planetographic, +East, -180 - 180","Crater, craters",Approved,Daniel; French astronomer (1907-1965).
Barkla,Barkla,Moon,40.90,-10.67,67.22,"Planetographic, +East, -180 - 180","Crater, craters",Approved,Charles Glover; British physicist; Nobel laureate (1877-1944).
Barnard,Barnard,Moon,115.73,-29.79,85.95,"Planetographic, +East, -180 - 180","Crater, craters",Approved,Edward Emerson; American astronomer (1857-1923).
Barocius,Barocius,Moon,82.72,-44.98,16.81,"Planetographic, +East, -180 - 180","Crater, craters",Approved,Francesco; Italian mathematician (1537-1604).
Barringer,Barringer,Moon,66.89,-28.22,-150.43,"Planetographic, +East, -180 - 180","Crater, craters",Approved,"Daniel Moreau; American engineer, geologist (1860-1929)."
Barrow,Barrow,Moon,93.82,71.28,7.59,"Planetographic, +East, -180 - 180","Crater, craters",Approved,Isaac; British mathematician (1630-1677).
Bartels,Bartels,Moon,54.95,24.51,-89.85,"Planetographic, +East, -180 - 180","Crater, craters",Approved,Julius; German geophysicist (1899-1964).
Bawa,Bawa,Moon,1.57,-25.28,102.56,"Planetographic, +East, -180 - 180","Crater, craters",Approved,African male name.
Bayer,Bayer,Moon,48.51,-51.62,-35.14,"Planetographic, +East, -180 - 180","Crater, craters",Approved,Johann; German astronomer (1572-1625).
Beals,Beals,Moon,52.61,37.11,86.58,"Planetographic, +East, -180 - 180","Crater, craters",Approved,Carlyle Smith; Canadian astronomer (1899-1979).
Beaumont,Beaumont,Moon,50.69,-18.08,28.82,"Planetographic, +East, -180 - 180","Crater, craters",Approved,Jean-Baptiste-Armand-Louis-Léonce Élie de; French geologist (1798-1874).
Becquerel,Becquerel,Moon,62.86,40.79,129.50,"Planetographic, +East, -180 - 180","Crater, craters",Approved,Antoine-Henri; French physicist; Nobel laureate (1852-1908).
Bečvář,Becvar,Moon,66.62,-2.57,125.07,"Planetographic, +East, -180 - 180","Crater, craters",Approved,Antonin; Czechoslovakian astronomer (1901-1965).
Beer,Beer,Moon,9.06,27.07,-9.10,"Planetographic, +East, -180 - 180","Crater, craters",Approved,Wilhelm; German astronomer (1797-1850).
Behaim,Behaim,Moon,56.21,-16.61,79.41,"Planetographic, +East, -180 - 180","Crater, craters",Approved,"Martin; German navigator, cartographer (1459-1507)."
Beijerinck,Beijerinck,Moon,76.77,-13.40,151.84,"Planetographic, +East, -180 - 180","Crater, craters",Approved,Martinus Willem; Dutch botanist (1851-1931).
Beketov,Beketov,Moon,8.30,16.23,29.18,"Planetographic, +East, -180 - 180","Crater, craters",Approved,Nikolai Nikolaevich; Russian chemist (1827-1911).
Béla,Bela,Moon,10.07,24.67,2.27,"Planetographic, +East, -180 - 180","Crater, craters",Approved,"Hungarian male name, also Slovak female name."
Bel'kovich,Belkovich,Moon,215.08,61.53,90.15,"Planetographic, +East, -180 - 180","Crater, craters",Approved,Igor V.; Soviet astronomer (1904-1949).
Bell,Bell,Moon,86.33,21.98,-96.53,"Planetographic, +East, -180 - 180","Crater, craters",Approved,Alexander Graham; Scottish-American inventor (1847-1922).
Bellinsgauzen (Bellingshausen),Bellinsgauzen  Bellingshausen,Moon,63.23,-60.72,-164.85,"Planetographic, +East, -180 - 180","Crater, craters",Approved,Faddei Faddeevich; Russian explorer (1778-1852).
Bellot,Bellot,Moon,17.50,-12.48,48.19,"Planetographic, +East, -180 - 180","Crater, craters",Approved,Joseph Rene; French explorer (1826-1853).
Belopol'skiy,Belopol skiy,Moon,61.90,-17.25,-128.23,"Planetographic, +East, -180 - 180","Crater, craters",Approved,Aristarch Apollonovich; Russian astronomer (1854-1934).
Belyaev,Belyaev,Moon,55.90,23.10,143.11,"Planetographic, +East, -180 - 180","Crater, craters",Approved,Pavel Ivanovich; Soviet cosmonaut (1925-1970).
Benedict,Benedict,Moon,13.83,4.35,141.54,"Planetographic, +East, -180 - 180","Crater, craters",Approved,"Francis Gano; American chemist, physiologist (1870-1957)."
Bergman,Bergman,Moon,22.51,6.97,137.49,"Planetographic, +East, -180 - 180","Crater, craters",Approved,"Torbern Olof; Swedish chemist, mineralogist, astronomer (1735-1784)."
Bergstrand,Bergstrand,Moon,42.98,-18.72,176.44,"Planetographic, +East, -180 - 180","Crater, craters",Approved,Carl Östen Emanuel; Swedish astronomer (1873-1948).
Berkner,Berkner,Moon,87.62,25.13,-105.24,"Planetographic, +East, -180 - 180","Crater, craters",Approved,Lloyd Viel; American geophysicist (1905-1967).
Berlage,Berlage,Moon,93.75,-63.04,-163.61,"Planetographic, +East, -180 - 180","Crater, craters",Approved,"Hendrik Petrus; Dutch geophysicist, meteorologist (1896-1968)."
Bernoulli,Bernoulli,Moon,47.30,34.93,60.61,"Planetographic, +East, -180 - 180","Crater, craters",Approved,Jacques; Swiss mathematician (1654-1705); Jean; Swiss mathematician (1667-1748). (Spelling changed from Bernouilli.)
Berosus,Berosus,Moon,75.24,33.50,69.99,"Planetographic, +East, -180 - 180","Crater, craters",Approved,Berosus the Chaldean; Babylonian astronomer (unkn-c. 250 B.C.).
Berzelius,Berzelius,Moon,48.53,36.55,50.95,"Planetographic, +East, -180 - 180","Crater, craters",Approved,Jöns Jacob; Swedish chemist (1779-1848).
Bessarion,Bessarion,Moon,9.84,14.85,-37.31,"Planetographic, +East, -180 - 180","Crater, craters",Approved,John; Greek scholar (1403-1472).
Bessel,Bessel,Moon,15.56,21.73,17.92,"Planetographic, +East, -180 - 180","Crater, craters",Approved,Friedrich Wilhelm; German astronomer (1784-1846).
Bettinus,Bettinus,Moon,71.78,-63.40,-45.16,"Planetographic, +East, -180 - 180","Crater, craters",Approved,"Mario; Italian mathematician, astronomer (1582-1657)."
Bhabha,Bhabha,Moon,70.25,-55.50,-165.31,"Planetographic, +East, -180 - 180","Crater, craters",Approved,Homi Jehangir; Indian physicist (1909-1966).
Bianchini,Bianchini,Moon,37.59,48.78,-34.37,"Planetographic, +East, -180 - 180","Crater, craters",Approved,Francesco; Italian astronomer (1662-1729).
Biela,Biela,Moon,77.03,-54.99,51.63,"Planetographic, +East, -180 - 180","Crater, craters",Approved,Wilhelm von; Austrian astronomer (1782-1856).
Bilharz,Bilharz,Moon,44.55,-5.83,56.34,"Planetographic, +East, -180 - 180","Crater, craters",Approved,"Theodor; German doctor, zoologist (1825-1862)."
Billy,Billy,Moon,45.57,-13.83,-50.24,"Planetographic, +East, -180 - 180","Crater, craters",Approved,Jacques de; French mathematician (1602-1679).
Bingham,Bingham,Moon,34.99,8.02,115.05,"Planetographic, +East, -180 - 180","Crater, craters",Approved,Hiram; American explorer (1875-1956).
Biot,Biot,Moon,13.01,-22.70,51.08,"Planetographic, +East, -180 - 180","Crater, craters",Approved,Jean-Baptiste; French astronomer (1774-1862).
Birkeland,Birkeland,Moon,81.64,-30.17,174.01,"Planetographic, +East, -180 - 180","Crater, craters",Approved,Olaf Kristian; Norwegian physicist (1867-1917).
Birkhoff,Birkhoff,Moon,329.81,58.45,-145.65,"Planetographic, +East, -180 - 180","Crater, craters",Approved,George David; American mathematician (1884-1944).
Birmingham,Birmingham,Moon,89.92,65.12,-10.70,"Planetographic, +East, -180 - 180","Crater, craters",Approved,John; Irish astronomer (1816-1884).
Birt,Birt,Moon,15.81,-22.36,-8.59,"Planetographic, +East, -180 - 180","Crater, craters",Approved,William R.; British selenographer (1804-1881).
Bi Sheng,Bi Sheng,Moon,55.27,78.35,148.46,"Planetographic, +East, -180 - 180","Crater, craters",Approved,Chinese inventor (c. 990-1051).
Bjerknes,Bjerknes,Moon,48.18,-38.50,113.69,"Planetographic, +East, -180 - 180","Crater, craters",Approved,Vilhelm Friman Koren; Norwegian physicist (1862-1951).
Black,Black,Moon,19.46,-9.20,80.39,"Planetographic, +East, -180 - 180","Crater, craters",Approved,Joseph; French chemist (1728-1799).
Blackett,Blackett,Moon,145.31,-37.55,-115.84,"Planetographic, +East, -180 - 180","Crater, craters",Approved,Patrick Maynard Stuart; British physicist; Nobel laureate (1897-1974).
Blagg,Blagg,Moon,4.97,1.22,1.46,"Planetographic, +East, -180 - 180","Crater, craters",Approved,Mary Adela; British astronomer (1858-1944).
Blancanus,Blancanus,Moon,105.82,-63.77,-21.63,"Planetographic, +East, -180 - 180","Crater, craters",Approved,"Biancani, Giuseppe; Italian mathematician, astronomer (1566-1624)."
Blanchard,Blanchard,Moon,37.46,-58.25,-93.50,"Planetographic, +East, -180 - 180","Crater, craters",Approved,Jean-Pierre-François; French aeronaut (1753-1809).
Blanchinus,Blanchinus,Moon,59.90,-25.32,2.44,"Planetographic, +East, -180 - 180","Crater, craters",Approved,"Bianchini, Giovanni; Italian astronomer (unkn-fl. 1458)."
Blazhko,Blazhko,Moon,51.11,31.37,-147.86,"Planetographic, +East, -180 - 180","Crater, craters",Approved,Sergei Nikolaevich; Soviet astronomer (1870-1956).
Bliss,Bliss,Moon,22.85,53.04,-13.78,"Planetographic, +East, -180 - 180","Crater, craters",Approved,Nathaniel; English Astronomer Royal (1700-1764).
Bobillier,Bobillier,Moon,6.04,19.63,15.44,"Planetographic, +East, -180 - 180","Crater, craters",Approved,Étienne; French geometer (1798-1840).
Bobone,Bobone,Moon,32.14,26.70,-132.12,"Planetographic, +East, -180 - 180","Crater, craters",Approved,Jorge; Argentinean astronomer (1901-1958).
Bode,Bode,Moon,17.80,6.71,-2.45,"Planetographic, +East, -180 - 180","Crater, craters",Approved,Johann Elert; German astronomer (1747-1826).
Boethius,Boethius,Moon,11.17,5.57,72.33,"Planetographic, +East, -180 - 180","Crater, craters",Approved,Anicius Manlius Severinus; Roman scholar(c. A.D. 470-524).
Boguslawsky,Boguslawsky,Moon,94.59,-72.90,43.26,"Planetographic, +East, -180 - 180","Crater, craters",Approved,Palm Heinrich Ludwig von; German astronomer (1789-1851).
Bohnenberger,Bohnenberger,Moon,31.74,-16.24,40.06,"Planetographic, +East, -180 - 180","Crater, craters",Approved,Johann Gottlieb Friedrich Von; German astronomer (1765-1831).
Bohr,Bohr,Moon,70.07,12.71,-86.52,"Planetographic, +East, -180 - 180","Crater, craters",Approved,Niels Henrik David; Danish physicist; Nobel laureate (1885-1962).
Bok,Bok,Moon,43.03,-20.26,-171.58,"Planetographic, +East, -180 - 180","Crater, craters",Approved,"Priscilla Fairfield; American astronomer (1896-1975), Bart Jan; Dutch-American astronomer (1906-1983)."
Boltzmann,Boltzmann,Moon,72.31,-74.82,-90.41,"Planetographic, +East, -180 - 180","Crater, craters",Approved,Ludwig Eduard; Austrian physicist (1844-1906).
Bolyai,Bolyai,Moon,102.22,-33.85,126.12,"Planetographic, +East, -180 - 180","Crater, craters",Approved,Janos; Hungarian mathematician (1802-1860).
Bombelli,Bombelli,Moon,9.72,5.28,56.19,"Planetographic, +East, -180 - 180","Crater, craters",Approved,Rafael; Italian mathematician (1526-1572).
Bondarenko,Bondarenko,Moon,28.26,-17.24,136.89,"Planetographic, +East, -180 - 180","Crater, craters",Approved,Valentin Vasilyevich; Soviet student-cosmonaut (1937-1961).
Bonpland,Bonpland,Moon,59.25,-8.38,-17.33,"Planetographic, +East, -180 - 180","Crater, craters",Approved,Aimé-Jacques-Alexandre; French botanist (1773-1858).
Boole,Boole,Moon,61.34,63.79,-87.29,"Planetographic, +East, -180 - 180","Crater, craters",Approved,George; British mathematician (1815-1864).
Borda,Borda,Moon,45.40,-25.20,46.52,"Planetographic, +East, -180 - 180","Crater, craters",Approved,Jean Charles de; French astronomer (1733-1799).
Borel,Borel,Moon,4.66,22.37,26.42,"Planetographic, +East, -180 - 180","Crater, craters",Approved,Félix Édouard Émile; French mathematician (1871-1956).
Boris,Boris,Moon,1.73,30.53,-33.50,"Planetographic, +East, -180 - 180","Crater, craters",Approved,Russian male name.
Borman,Borman,Moon,50.72,-39.06,-148.25,"Planetographic, +East, -180 - 180","Crater, craters",Approved,"Frank; American astronaut, engineer (1928-Live)."
Born,Born,Moon,15.07,-6.05,66.83,"Planetographic, +East, -180 - 180","Crater, craters",Approved,Max; German physicist (1882-1970).
Borya,Borya,Moon,0.40,38.28,-35.01,"Planetographic, +East, -180 - 180","Crater, craters",Approved,Slavic male name Boris in Russian diminutive form (Lunokhod-1 landing site feature).
Bosch,Bosch,Moon,19.58,86.82,133.54,"Planetographic, +East, -180 - 180","Crater, craters",Approved,"Carl; German chemist, Nobel Prize winner 1931 (1874-1940)."
Boscovich,Boscovich,Moon,41.53,9.71,11.01,"Planetographic, +East, -180 - 180","Crater, craters",Approved,Rudjer J.; Italian physicist (1711-1787).
Bose,Bose,Moon,92.55,-53.95,-169.36,"Planetographic, +East, -180 - 180","Crater, craters",Approved,"Jagadis Chandra; Indian botanist, physicist (1858-1937)."
Boss,Boss,Moon,50.20,45.75,88.68,"Planetographic, +East, -180 - 180","Crater, craters",Approved,Lewis; American astronomer (1846-1912).
Bouguer,Bouguer,Moon,22.23,52.32,-35.82,"Planetographic, +East, -180 - 180","Crater, craters",Approved,Pierre; French hydrographer (1698-1758).
Boussingault,Boussingault,Moon,127.61,-70.21,53.73,"Planetographic, +East, -180 - 180","Crater, craters",Approved,Jean Baptiste Dieudonne; French chemist (1802-1887).
Bowditch,Bowditch,Moon,43.04,-24.97,103.07,"Planetographic, +East, -180 - 180","Crater, craters",Approved,"Nathaniel; American astronomer, mathematician (1773-1848)."
Bowen,Bowen,Moon,8.09,17.63,9.10,"Planetographic, +East, -180 - 180","Crater, craters",Approved,Ira Sprague; American astronomer (1898-1973).
Boyle,Boyle,Moon,57.13,-53.29,177.89,"Planetographic, +East, -180 - 180","Crater, craters",Approved,"Robert; British natural philosopher, chemist (1627-1691)."
Brackett,Brackett,Moon,8.87,17.84,23.54,"Planetographic, +East, -180 - 180","Crater, craters",Approved,Frederick Sumner; American physicist (1896-1988).
Bragg,Bragg,Moon,77.21,42.33,-103.44,"Planetographic, +East, -180 - 180","Crater, craters",Approved,Sir William Henry; Australian physicist; Nobel laureate (1862-1942).
Brashear,Brashear,Moon,60.16,-73.54,-171.57,"Planetographic, +East, -180 - 180","Crater, craters",Approved,John Alfred; American astronomer (1840-1920).
Braude,Braude,Moon,11.28,-81.82,158.88,"Planetographic, +East, -180 - 180","Crater, craters",Approved,Semion Ya.; Ukranian radio astronomer (1911-2003).
Brayley,Brayley,Moon,14.17,20.90,-36.94,"Planetographic, +East, -180 - 180","Crater, craters",Approved,Edward William; British geographer (1801-1870).
Bredikhin,Bredikhin,Moon,61.68,17.25,-158.37,"Planetographic, +East, -180 - 180","Crater, craters",Approved,Fedor Aleksandrovich; Russian astronomer (1831-1904).
Breislak,Breislak,Moon,48.64,-48.31,18.31,"Planetographic, +East, -180 - 180","Crater, craters",Approved,"Scipione; Italian chemist, geologist, mathematician (1748-1826)."
Brenner,Brenner,Moon,90.01,-39.09,39.11,"Planetographic, +East, -180 - 180","Crater, craters",Approved,Leo (Spiridon Gopcevic); Austrian astronomer (1855-1928).
Brewster,Brewster,Moon,9.83,23.27,34.69,"Planetographic, +East, -180 - 180","Crater, craters",Approved,David; Scottish optician (1781-1868).
Brianchon,Brianchon,Moon,137.26,74.75,-88.36,"Planetographic, +East, -180 - 180","Crater, craters",Approved,Charles-Julien; French mathematician (1783-1864).
Bridgman,Bridgman,Moon,81.89,43.39,136.98,"Planetographic, +East, -180 - 180","Crater, craters",Approved,Percy Williams; American physicist; Nobel laureate (1882-1961).
Briggs,Briggs,Moon,36.75,26.45,-69.19,"Planetographic, +East, -180 - 180","Crater, craters",Approved,Henry; British mathematician (1561-1630).
Brisbane,Brisbane,Moon,44.32,-49.20,68.76,"Planetographic, +East, -180 - 180","Crater, craters",Approved,Sir Thomas Makdougall; Scottish astronomer (1773-1860).
Bronk,Bronk,Moon,66.16,25.90,-134.67,"Planetographic, +East, -180 - 180","Crater, craters",Approved,Detlev Wulf; American neurophysiologist (1897-1975).
Brouwer,Brouwer,Moon,119.60,-35.82,-124.75,"Planetographic, +East, -180 - 180","Crater, craters",Approved,Dirk; American astronomer (1902-1966); Luitzen Egbertus Jan; Dutch mathematician (1881-1966).
Brown,Brown,Moon,34.03,-46.53,-17.99,"Planetographic, +East, -180 - 180","Crater, craters",Approved,"Ernest William; British astronomer, mathematician (1866-1938)."
Bruce,Bruce,Moon,6.14,1.16,0.37,"Planetographic, +East, -180 - 180","Crater, craters",Approved,"Catherine Wolfe; American philanthropist, astronomy patron (1816-1900)."
Brunner,Brunner,Moon,50.66,-9.86,90.91,"Planetographic, +East, -180 - 180","Crater, craters",Approved,William Otto; Swiss astronomer (1878-1958).
Buch,Buch,Moon,51.31,-38.90,17.68,"Planetographic, +East, -180 - 180","Crater, craters",Approved,Christian Leopold von; German geologist (1774-1853).
Buffon,Buffon,Moon,105.76,-40.64,-133.53,"Planetographic, +East, -180 - 180","Crater, craters",Approved,Georges Louis Leclerc; French natural historian (1707-1788).
Buisson,Buisson,Moon,61.27,-1.47,112.95,"Planetographic, +East, -180 - 180","Crater, craters",Approved,"Henri; French physicist, astronomer (1873-1944)."
Bullialdus,Bullialdus,Moon,60.72,-20.75,-22.26,"Planetographic, +East, -180 - 180","Crater, craters",Approved,"Boulliau, Ismael; French astronomer (1605-1694)."
Bunsen,Bunsen,Moon,55.22,41.40,-85.46,"Planetographic, +East, -180 - 180","Crater, craters",Approved,Robert Wilhelm Eberhard; German chemist (1811-1899).
Burckhardt,Burckhardt,Moon,54.36,31.11,56.39,"Planetographic, +East, -180 - 180","Crater, craters",Approved,Johann Karl; German astronomer (1773-1825).
Bürg,Burg,Moon,41.04,45.07,28.21,"Planetographic, +East, -180 - 180","Crater, craters",Approved,Johann Tobias; Austrian astronomer (1766-1834).
Burnham,Burnham,Moon,24.09,-13.92,7.25,"Planetographic, +East, -180 - 180","Crater, craters",Approved,Sherburne Wesley; American astronomer (1838-1921).
Büsching,Busching,Moon,53.49,-38.04,19.96,"Planetographic, +East, -180 - 180","Crater, craters",Approved,Anton Friedrich; German geographer (1724-1793).
Butlerov,Butlerov,Moon,38.77,12.05,-108.81,"Planetographic, +East, -180 - 180","Crater, craters",Approved,Aleksandr Mikhailovich; Russian chemist (1828-1886).
Buys-Ballot,Buys Ballot,Moon,66.38,20.86,174.82,"Planetographic, +East, -180 - 180","Crater, craters",Approved,Christoph Hendrik Diederik; Dutch meteorologist (1817-1890).
Byrd,Byrd,Moon,97.49,85.43,10.07,"Planetographic, +East, -180 - 180","Crater, craters",Approved,"Richard Edwin; American explorer, aviator, navigator (1888-1957)."
Byrgius,Byrgius,Moon,84.46,-24.73,-65.38,"Planetographic, +East, -180 - 180","Crater, craters",Approved,"Burgi, Joost; Swiss horologist (1552-1632)."
Cabannes,Cabannes,Moon,81.30,-61.24,-170.21,"Planetographic, +East, -180 - 180","Crater, craters",Approved,Jean; French physicist (1885-1959).
Cabeus,Cabeus,Moon,100.58,-85.33,-42.13,"Planetographic, +East, -180 - 180","Crater, craters",Approved,"Cabeo, Niccolo; Italian astronomer (1586-1650)."
Cailleux,Cailleux,Moon,52.85,-60.41,153.50,"Planetographic, +East, -180 - 180","Crater, craters",Approved,Andre; French geologist (1907-1986).
Cai Lun,Cai Lun,Moon,44.89,80.12,113.66,"Planetographic, +East, -180 - 180","Crater, craters",Approved,Chinese inventor (c. 57-121).
Cajal,Cajal,Moon,8.57,12.59,31.08,"Planetographic, +East, -180 - 180","Crater, craters",Approved,Santiago Ramon Y; Spanish doctor; Nobel laureate (1852-1934).
Cajori,Cajori,Moon,74.65,-47.67,168.70,"Planetographic, +East, -180 - 180","Crater, craters",Approved,Florian; American mathematician (1859-1930).
Calippus,Calippus,Moon,34.03,38.92,10.72,"Planetographic, +East, -180 - 180","Crater, craters",Approved,Calippus of Cyzicus; Greek astronomer (c. 370 B.C.).
Cameron,Cameron,Moon,10.91,6.19,45.93,"Planetographic, +East, -180 - 180","Crater, craters",Approved,Robert Curry; American astronomer (1925-1972).
Campanus,Campanus,Moon,46.41,-28.04,-27.90,"Planetographic, +East, -180 - 180","Crater, craters",Approved,Campanus of Navara; Italian astronomer (c. 1200-1296).
Campbell,Campbell,Moon,222.48,45.57,152.91,"Planetographic, +East, -180 - 180","Crater, craters",Approved,Leon; American astronomer (1881-1951); William Wallace; American astronomer (1862-1938).
Cannizzaro,Cannizzaro,Moon,54.51,55.50,-99.73,"Planetographic, +East, -180 - 180","Crater, craters",Approved,Stanislao; Italian chemist (1826-1910).
Cannon,Cannon,Moon,57.58,19.88,81.36,"Planetographic, +East, -180 - 180","Crater, craters",Approved,Annie Jump; American astronomer (1863-1941).
Cantor,Cantor,Moon,75.72,38.04,118.69,"Planetographic, +East, -180 - 180","Crater, craters",Approved,Georg; German mathematician (1845-1918); Moritz; German mathematician (1829-1920).
Capella,Capella,Moon,48.13,-7.65,34.92,"Planetographic, +East, -180 - 180","Crater, craters",Approved,Martianus; Roman astronomer (c. A.D. 400-unkn).
Capuanus,Capuanus,Moon,59.69,-34.09,-26.73,"Planetographic, +East, -180 - 180","Crater, craters",Approved,Francesco Capuano Di Manfredonia; Italian astronomer (c. 1400-unkn).
Cardanus,Cardanus,Moon,49.57,13.27,-72.50,"Planetographic, +East, -180 - 180","Crater, craters",Approved,"Cardano, Girolamo; Italian mathematician (1501-1576)."
Carlini,Carlini,Moon,10.66,33.75,-24.12,"Planetographic, +East, -180 - 180","Crater, craters",Approved,Francesco; Italian astronomer (1783-1862).
Carlos,Carlos,Moon,4.67,24.91,2.28,"Planetographic, +East, -180 - 180","Crater, craters",Approved,Spanish male name.
Carmichael,Carmichael,Moon,19.73,19.53,40.36,"Planetographic, +East, -180 - 180","Crater, craters",Approved,Leonard; American psychologist (1898-1973).
Carnot,Carnot,Moon,126.06,52.09,-144.20,"Planetographic, +East, -180 - 180","Crater, craters",Approved,Nicolas-Léonard Sadi; French physicist (1796-1832).
Carol,Carol,Moon,6.25,8.48,122.37,"Planetographic, +East, -180 - 180","Crater, craters",Approved,Latin female name.
Carpenter,Carpenter,Moon,59.06,69.52,-51.23,"Planetographic, +East, -180 - 180","Crater, craters",Approved,James; British astronomer (1840-1899); Edwin Francis; American astronomer (1898-1963).
Carrel,Carrel,Moon,15.59,10.67,26.68,"Planetographic, +East, -180 - 180","Crater, craters",Approved,"Alexis; French doctor, physiologist; Nobel laureate (1873-1944)."
Carrillo,Carrillo,Moon,17.85,-2.11,80.96,"Planetographic, +East, -180 - 180","Crater, craters",Approved,Flores Nabor; Mexican soil engineer (1911-1967).
Carrington,Carrington,Moon,27.77,43.97,62.04,"Planetographic, +East, -180 - 180","Crater, craters",Approved,Richard Christopher; British astronomer (1826-1875).
Cartan,Cartan,Moon,15.62,4.24,59.29,"Planetographic, +East, -180 - 180","Crater, craters",Approved,Elie-Joseph; French mathematician (1869-1951).
Carver,Carver,Moon,62.45,-43.46,127.60,"Planetographic, +East, -180 - 180","Crater, craters",Approved,George Washington; American botanist (1864-1943).
Casatus,Casatus,Moon,102.85,-72.70,-30.75,"Planetographic, +East, -180 - 180","Crater, craters",Approved,"Casati, Paolo; Italian mathematician (1617-1707)."
Cassegrain,Cassegrain,Moon,56.66,-51.95,113.30,"Planetographic, +East, -180 - 180","Crater, craters",Approved,"Laurent; French astronomer, doctor (1629-1693)."
Cassini,Cassini,Moon,56.88,40.25,4.64,"Planetographic, +East, -180 - 180","Crater, craters",Approved,Giovanni Domenico; Italian-French astronomer (1625-1712); Jacques; French astronomer (1677-1756).
Catalán,Catalan,Moon,26.77,-45.70,-87.37,"Planetographic, +East, -180 - 180","Crater, craters",Approved,Miguel Antonio; Spanish spectroscopist (1894-1957).
Catharina,Catharina,Moon,98.77,-17.98,23.55,"Planetographic, +East, -180 - 180","Crater, craters",Approved,"St. Catherine of Alexandria; Greek theologian, philosopher (unkn-c. 307)."
Cauchy,Cauchy,Moon,11.80,9.56,38.63,"Planetographic, +East, -180 - 180","Crater, craters",Approved,Augustin Louis; French mathematician (1789-1857).
Cavalerius,Cavalerius,Moon,59.35,5.10,-66.93,"Planetographic, +East, -180 - 180","Crater, craters",Approved,"Cavalieri, Buonaventura; Italian mathematician (1598-1647)."
Cavendish,Cavendish,Moon,52.64,-24.63,-53.78,"Planetographic, +East, -180 - 180","Crater, craters",Approved,"Henry; British chemist, physicist (1731-1810)."
Caventou,Caventou,Moon,2.80,29.74,-29.38,"Planetographic, +East, -180 - 180","Crater, craters",Approved,"Joseph-Bienaimé; French chemist, pharmacologist (1795-1877)."
Cayley,Cayley,Moon,14.20,3.94,15.09,"Planetographic, +East, -180 - 180","Crater, craters",Approved,"Arthur; British astronomer, mathematician (1821-1895)."
Celsius,Celsius,Moon,38.96,-34.10,20.05,"Planetographic, +East, -180 - 180","Crater, craters",Approved,Anders; Swedish astronomer (1701-1744).
Censorinus,Censorinus,Moon,4.10,-0.42,32.69,"Planetographic, +East, -180 - 180","Crater, craters",Approved,Roman astronomer (fl. A.D. 238).
Cepheus,Cepheus,Moon,39.43,40.68,45.78,"Planetographic, +East, -180 - 180","Crater, craters",Approved,"Mythological astronomer, father of Andromeda."
Chacornac,Chacornac,Moon,50.44,29.88,31.67,"Planetographic, +East, -180 - 180","Crater, craters",Approved,Jean; French astronomer (1823-1873).
Chadwick,Chadwick,Moon,29.74,-52.85,-101.34,"Planetographic, +East, -180 - 180","Crater, craters",Approved,Sir James; British physicist (1891-1974).
Chaffee,Chaffee,Moon,51.75,-39.06,-154.63,"Planetographic, +East, -180 - 180","Crater, craters",Approved,"Roger Bruce; American aeronautic engineer, astronaut (1935-1967)."
Challis,Challis,Moon,53.21,79.58,9.09,"Planetographic, +East, -180 - 180","Crater, craters",Approved,"James; British astronomer, mathematician, physicist (1803-1882)."
Chalonge,Chalonge,Moon,25.08,-20.44,-116.35,"Planetographic, +East, -180 - 180","Crater, craters",Approved,Daniel; French astronomer (1895-1977).
Chamberlin,Chamberlin,Moon,60.41,-58.83,96.04,"Planetographic, +East, -180 - 180","Crater, craters",Approved,Thomas Chrowder; American geologist (1843-1928).
Champollion,Champollion,Moon,48.97,37.39,175.03,"Planetographic, +East, -180 - 180","Crater, craters",Approved,Jean-François; French Egyptologist (1790-1832).
Chandler,Chandler,Moon,88.60,43.65,171.76,"Planetographic, +East, -180 - 180","Crater, craters",Approved,Seth Carlo; American astronomer (1846-1913).
Chang Heng,Chang Heng,Moon,42.65,18.90,112.21,"Planetographic, +East, -180 - 180","Crater, craters",Approved,Chinese astronomer (78-139).
Chang-Ngo,Chang Ngo,Moon,2.34,-12.69,-2.16,"Planetographic, +East, -180 - 180","Crater, craters",Approved,Chinese female name.
Chant,Chant,Moon,33.60,-40.14,-109.46,"Planetographic, +East, -180 - 180","Crater, craters",Approved,"Clarence Augustus; Canadian astronomer, physicist (1865-1956)."
Chaplygin,Chaplygin,Moon,123.39,-5.76,150.24,"Planetographic, +East, -180 - 180","Crater, craters",Approved,"Sergei Alekseevich; Soviet mathematician, engineer (1869-1942)."
Chapman,Chapman,Moon,76.83,50.09,-100.47,"Planetographic, +East, -180 - 180","Crater, craters",Approved,Sydney; British geophysicist (1888-1970).
Chappe,Chappe,Moon,55.79,-61.29,-91.24,"Planetographic, +East, -180 - 180","Crater, craters",Approved,"d'Auteroche, Jean-Baptiste; French astronomer (1728-1769)."
Chappell,Chappell,Moon,73.92,54.53,-176.77,"Planetographic, +East, -180 - 180","Crater, craters",Approved,James Frederick; American astronomer (1891-1964).
Charles,Charles,Moon,1.34,29.90,-26.37,"Planetographic, +East, -180 - 180","Crater, craters",Approved,French male name.
Charlier,Charlier,Moon,109.88,36.22,-131.69,"Planetographic, +East, -180 - 180","Crater, craters",Approved,Carl Wilhelm Ludwig; Swedish astronomer (1862-1934).
Chaucer,Chaucer,Moon,45.48,3.39,-140.71,"Planetographic, +East, -180 - 180","Crater, craters",Approved,"Geoffrey; British writer, astronomer (c. 1340-1400)."
Chauvenet,Chauvenet,Moon,77.67,-11.64,137.20,"Planetographic, +East, -180 - 180","Crater, craters",Approved,"William; American astronomer, mathematician (1820-1870)."
Chawla,Chawla,Moon,14.25,-42.48,-147.49,"Planetographic, +East, -180 - 180","Crater, craters",Approved,"Kalpana; American astronaut, Space Shuttle Columbia Mission Specialist (1961-2003)."
Chebyshev,Chebyshev,Moon,179.05,-34.01,-132.88,"Planetographic, +East, -180 - 180","Crater, craters",Approved,Pafnuty Lvovich; Russian mathematician (1821-1894).
Chernyshev,Chernyshev,Moon,59.31,47.01,174.41,"Planetographic, +East, -180 - 180","Crater, craters",Approved,Nikolaj Gavrilovich; Soviet rocketry engineer (1906-1963).
C. Herschel,C  Herschel,Moon,13.70,34.48,-31.29,"Planetographic, +East, -180 - 180","Crater, craters",Approved,Caroline Lucretia; British astronomer (1750-1848).
Chevallier,Chevallier,Moon,51.83,45.01,51.57,"Planetographic, +East, -180 - 180","Crater, craters",Approved,Temple; British astronomer (1794-1873).
Ching-Te,Ching Te,Moon,3.70,20.02,29.97,"Planetographic, +East, -180 - 180","Crater, craters",Approved,Chinese male name.
Chladni,Chladni,Moon,13.07,3.99,1.12,"Planetographic, +East, -180 - 180","Crater, craters",Approved,Ernst Florens Friedrich; German physicist (1756-1827).
Chrétien,Chretien,Moon,98.63,-46.11,162.99,"Planetographic, +East, -180 - 180","Crater, craters",Approved,"Henri; French mathematician, astronomer (1870-1956)."
Cichus,Cichus,Moon,39.18,-33.29,-21.18,"Planetographic, +East, -180 - 180","Crater, craters",Approved,Francesco Degli Stabili (Cecco D'Ascoli); Italian astronomer (1257-1327).
Clairaut,Clairaut,Moon,76.89,-47.84,13.86,"Planetographic, +East, -180 - 180","Crater, craters",Approved,Alexis Claude; French mathematician (1713-1765).
Clark,Clark,Moon,52.11,-38.67,119.35,"Planetographic, +East, -180 - 180","Crater, craters",Approved,"Alvan; American astronomer (1804-1887); Alvan G.; American astronomer, optician (1832-1897)."
Clausius,Clausius,Moon,24.20,-36.90,-43.93,"Planetographic, +East, -180 - 180","Crater, craters",Approved,Rudolf Julius Emmanuel; German physicist (1822-1888).
Clavius,Clavius,Moon,230.77,-58.62,-14.73,"Planetographic, +East, -180 - 180","Crater, craters",Approved,Christopher Klau; German mathematician (1537-1612).
Cleomedes,Cleomedes,Moon,130.77,27.60,55.50,"Planetographic, +East, -180 - 180","Crater, craters",Approved,Greek astronomer (unkn-c. 50 B.C.).
Cleostratus,Cleostratus,Moon,63.23,60.32,-77.40,"Planetographic, +East, -180 - 180","Crater, craters",Approved,Greek astronomer (unkn-c. 500 B.C.).
Clerke,Clerke,Moon,6.66,21.68,29.80,"Planetographic, +East, -180 - 180","Crater, craters",Approved,Agnes Mary; British astronomer (1842-1907).
C. Mayer,C  Mayer,Moon,37.54,63.26,17.31,"Planetographic, +East, -180 - 180","Crater, craters",Approved,"Christian; German astronomer, mathematician, physicist (1719-1783)."
Coblentz,Coblentz,Moon,32.66,-38.09,126.65,"Planetographic, +East, -180 - 180","Crater, craters",Approved,"William Weber; American physicist, astronomer (1873-1962)."
Cockcroft,Cockcroft,Moon,92.16,31.09,-162.91,"Planetographic, +East, -180 - 180","Crater, craters",Approved,Sir John Douglas; British nuclear physicist; Nobel laureate (1897-1967).
Collins,Collins,Moon,2.58,1.30,23.71,"Planetographic, +East, -180 - 180","Crater, craters",Approved,Michael; American astronaut (1930-Live).
Colombo,Colombo,Moon,79.02,-15.26,46.02,"Planetographic, +East, -180 - 180","Crater, craters",Approved,"Columbus, Christopher; Spanish explorer (1451-1506)."
Compton,Compton,Moon,164.63,55.86,104.05,"Planetographic, +East, -180 - 180","Crater, craters",Approved,"Arthur Holly; American physicist, Nobel laureate (1892-1962); Karl Taylor; American physicist (1887-1954)."
Comrie,Comrie,Moon,59.25,23.39,-113.17,"Planetographic, +East, -180 - 180","Crater, craters",Approved,Leslie John; British astronomer (1893-1950).
Comstock,Comstock,Moon,73.23,21.59,-122.05,"Planetographic, +East, -180 - 180","Crater, craters",Approved,George Cary; American astronomer (1855-1934).
Condon,Condon,Moon,34.85,1.87,60.36,"Planetographic, +East, -180 - 180","Crater, craters",Approved,Edward Uhler; American physicist (1902-1974).
Condorcet,Condorcet,Moon,74.85,12.10,69.58,"Planetographic, +East, -180 - 180","Crater, craters",Approved,Jean de; French mathematician (1743-1794).
Congreve,Congreve,Moon,57.60,-0.28,-167.84,"Planetographic, +East, -180 - 180","Crater, craters",Approved,"Sir William; British rocket engineer, inventor (1772-1828)."
Conon,Conon,Moon,20.96,21.66,1.95,"Planetographic, +East, -180 - 180","Crater, craters",Approved,Conon of Samos; Greek astronomer (c. 260 B.C.).
Cook,Cook,Moon,45.16,-17.50,48.81,"Planetographic, +East, -180 - 180","Crater, craters",Approved,James; British explorer (1728-1779).
Cooper,Cooper,Moon,51.87,52.68,175.92,"Planetographic, +East, -180 - 180","Crater, craters",Approved,"John Cobb; American jurist, scholar (1887-1967)."
Copernicus,Copernicus,Moon,96.07,9.62,-20.08,"Planetographic, +East, -180 - 180","Crater, craters",Approved,Nicholas; Polish astronomer (1473-1543).
Cori,Cori,Moon,67.22,-50.48,-152.91,"Planetographic, +East, -180 - 180","Crater, craters",Approved,Gerty Theresa Radnitz; Czech-American physiologist; Nobel laureate (1896-1957).
Coriolis,Coriolis,Moon,78.56,0.56,171.80,"Planetographic, +East, -180 - 180","Crater, craters",Approved,Gaspard-Gustave de; French physicist (1792-1843).
Couder,Couder,Moon,18.56,-4.90,-92.58,"Planetographic, +East, -180 - 180","Crater, craters",Approved,André; French astronomer (1897-1979).
Coulomb,Coulomb,Moon,89.72,54.46,-115.00,"Planetographic, +East, -180 - 180","Crater, craters",Approved,Charles-Augustin de; French physicist (1736-1806).
Courtney,Courtney,Moon,1.24,25.14,-30.81,"Planetographic, +East, -180 - 180","Crater, craters",Approved,English male name.
Cremona,Cremona,Moon,85.12,67.24,-90.86,"Planetographic, +East, -180 - 180","Crater, craters",Approved,Antonio Luigi Gaudenzio Guiseppe; Italian mathematician (1830-1903).
Crile,Crile,Moon,9.30,14.21,45.98,"Planetographic, +East, -180 - 180","Crater, craters",Approved,George Washington; American doctor (1864-1943).
Crocco,Crocco,Moon,67.50,-46.98,150.51,"Planetographic, +East, -180 - 180","Crater, craters",Approved,Gaetano Arturo; Italian aeronautical engineer (1877-1968).
Crommelin,Crommelin,Moon,93.48,-67.46,-147.95,"Planetographic, +East, -180 - 180","Crater, craters",Approved,Andrew Claude De La Cherois; British astronomer (1865-1939).
Crookes,Crookes,Moon,48.25,-10.40,-165.10,"Planetographic, +East, -180 - 180","Crater, craters",Approved,"Sir William; British physicist, chemist (1832-1919)."
Crozier,Crozier,Moon,22.51,-13.56,50.72,"Planetographic, +East, -180 - 180","Crater, craters",Approved,Francis Rawdon Moira; British explorer (1796-1848).
Crüger,Cruger,Moon,45.94,-16.68,-66.96,"Planetographic, +East, -180 - 180","Crater, craters",Approved,Peter; German mathematician (1580-1639).
Ctesibius,Ctesibius,Moon,32.10,0.83,118.75,"Planetographic, +East, -180 - 180","Crater, craters",Approved,Egyptian physicist (unkn-c. 100 B.C.).
Curie,Curie,Moon,138.87,-23.05,92.28,"Planetographic, +East, -180 - 180","Crater, craters",Approved,"Pierre; French physicist, chemist; Nobel laureate (1859-1906)."
Curtis,Curtis,Moon,2.88,14.57,56.79,"Planetographic, +East, -180 - 180","Crater, craters",Approved,Heber Doust; American astronomer (1872-1942).
Curtius,Curtius,Moon,99.29,-67.08,4.40,"Planetographic, +East, -180 - 180","Crater, craters",Approved,"Curtz, Albert; German astronomer (1600-1671)."
Cusanus,Cusanus,Moon,60.87,71.82,69.40,"Planetographic, +East, -180 - 180","Crater, craters",Approved,"Nikolaus Krebs; German mathematician, philosopher (1401-1464)."
Cuvier,Cuvier,Moon,77.30,-50.29,9.69,"Planetographic, +East, -180 - 180","Crater, craters",Approved,"Georges; French natural scientist, paleontologist (1769-1832)."
Cyrano,Cyrano,Moon,79.58,-20.37,157.37,"Planetographic, +East, -180 - 180","Crater, craters",Approved,Cyrano De Bergerac Savinien; French writer (1615-1655).
Cyrillus,Cyrillus,Moon,98.09,-13.29,24.07,"Planetographic, +East, -180 - 180","Crater, craters",Approved,"Saint Cyril; Egyptian theologian, chronologist (unkn-A.D. 444)."
Cysatus,Cysatus,Moon,47.77,-66.21,-6.34,"Planetographic, +East, -180 - 180","Crater, craters",Approved,"Cysat, Jean-Baptiste; Swiss mathematician, astronomer (1588-1657)."
Daedalus,Daedalus,Moon,93.61,-5.83,179.40,"Planetographic, +East, -180 - 180","Crater, craters",Approved,Greek mythological character.
Dag,Dag,Moon,0.36,18.71,5.26,"Planetographic, +East, -180 - 180","Crater, craters",Approved,Scandinavian male name.
Daguerre,Daguerre,Moon,45.79,-11.91,33.61,"Planetographic, +East, -180 - 180","Crater, craters",Approved,"Louis-Jacques-Mandé; French artist, chemist, photographer (1789-1851)."
Dale,Dale,Moon,23.41,-9.56,82.93,"Planetographic, +East, -180 - 180","Crater, craters",Approved,Sir Henry Hallett; British physiologist; Nobel laureate (1875-1968).
d'Alembert,d Alembert,Moon,233.55,51.07,164.89,"Planetographic, +East, -180 - 180","Crater, craters",Approved,"Jean-Le-Rond; French mathematician, physicist (1717-1783)."
Dalton,Dalton,Moon,60.69,17.07,-84.45,"Planetographic, +East, -180 - 180","Crater, craters",Approved,"John; British chemist, physicist (1766-1844)."
Daly,Daly,Moon,14.96,5.74,59.50,"Planetographic, +East, -180 - 180","Crater, craters",Approved,Reginald Aldworth; Canadian-born American geologist (1871-1957).
Damoiseau,Damoiseau,Moon,36.66,-4.85,-61.25,"Planetographic, +East, -180 - 180","Crater, craters",Approved,Baron Marie-Charles-Theodor de; French astronomer (1768-1846).
Daniell,Daniell,Moon,28.20,35.42,31.16,"Planetographic, +East, -180 - 180","Crater, craters",Approved,"John Frederick; British physicist, chemist, meteorologist (1790-1845)."
Danjon,Danjon,Moon,69.30,-11.42,123.90,"Planetographic, +East, -180 - 180","Crater, craters",Approved,Andre; French astronomer (1890-1967).
Dante,Dante,Moon,53.83,25.36,180.00,"Planetographic, +East, -180 - 180","Crater, craters",Approved,Alighieri; Italian poet (1265-1321).
Darney,Darney,Moon,14.81,-14.61,-23.57,"Planetographic, +East, -180 - 180","Crater, craters",Approved,Maurice; French astronomer (1882-1958).
D'Arrest,D Arrest,Moon,29.67,2.26,14.60,"Planetographic, +East, -180 - 180","Crater, craters",Approved,Heinrich Louis; German astronomer (1822-1875).
D'Arsonval,D Arsonval,Moon,30.36,-10.31,124.59,"Planetographic, +East, -180 - 180","Crater, craters",Approved,Jacques Arsène; French physicist (1851-1940).
Darwin,Darwin,Moon,122.18,-19.93,-69.21,"Planetographic, +East, -180 - 180","Crater, craters",Approved,Charles; British natural scientist (1809-1882).
Das,Das,Moon,35.95,-26.49,-137.05,"Planetographic, +East, -180 - 180","Crater, craters",Approved,Amil Kumar; Indian astronomer (1902-1961).
Daubrée,Daubree,Moon,14.67,15.73,14.75,"Planetographic, +East, -180 - 180","Crater, craters",Approved,Gabriel-Auguste; French geologist (1814-1896).
da Vinci,da Vinci,Moon,37.46,9.10,44.95,"Planetographic, +East, -180 - 180","Crater, craters",Approved,"Leonardo; Italian artist, inventor, mathematician (1452-1519)."
Davisson,Davisson,Moon,92.46,-37.93,-174.97,"Planetographic, +East, -180 - 180","Crater, craters",Approved,Clinton Joseph; American physicist; Nobel laureate (1881-1958).
Davy,Davy,Moon,33.94,-11.85,-8.15,"Planetographic, +East, -180 - 180","Crater, craters",Approved,Humphry; British physicist (1778-1829).
Dawes,Dawes,Moon,17.60,17.21,26.34,"Planetographic, +East, -180 - 180","Crater, craters",Approved,William Rutter; British astronomer (1799-1868).
Dawson,Dawson,Moon,44.31,-66.99,-135.05,"Planetographic, +East, -180 - 180","Crater, craters",Approved,Bernhard Hildebrandt; Argentinean astronomer (1890-1960).
D. Brown,D  Brown,Moon,16.12,-41.65,-147.16,"Planetographic, +East, -180 - 180","Crater, craters",Approved,"David McDowell; American astronaut, Space Shuttle Columbia Mission Specialist (1956-2003)."
Debes,Debes,Moon,31.92,29.47,51.62,"Planetographic, +East, -180 - 180","Crater, craters",Approved,Ernst; German cartographer (1840-1923).
Debus,Debus,Moon,19.77,-10.68,99.68,"Planetographic, +East, -180 - 180","Crater, craters",Approved,Kurt Heinrich; German physicist (1908-1983).
Debye,Debye,Moon,127.03,49.43,-176.03,"Planetographic, +East, -180 - 180","Crater, craters",Approved,"Peter Joseph William; Dutch physicist, chemist; Nobel laureate (1884-1966)."
Dechen,Dechen,Moon,12.04,46.12,-68.18,"Planetographic, +East, -180 - 180","Crater, craters",Approved,"Ernst Heinrich Karl von; German geologist, mineralogist (1800-1889)."
De Forest,De Forest,Moon,56.26,-76.94,-163.33,"Planetographic, +East, -180 - 180","Crater, craters",Approved,Lee; American inventor (1873-1961).
de Gasparis,de Gasparis,Moon,30.90,-25.83,-50.83,"Planetographic, +East, -180 - 180","Crater, craters",Approved,Annibale; Italian astronomer (1819-1892).
de Gerlache,de Gerlache,Moon,32.71,-88.48,-88.34,"Planetographic, +East, -180 - 180","Crater, craters",Approved,Adrien; Belgian Antarctic explorer (1866-1934).
Delambre,Delambre,Moon,51.49,-1.94,17.39,"Planetographic, +East, -180 - 180","Crater, craters",Approved,Jean-Baptiste Joseph; French astronomer (1749-1822).
De La Rue,De La Rue,Moon,135.22,59.02,52.84,"Planetographic, +East, -180 - 180","Crater, craters",Approved,Warren; British astronomer (1815-1889).
Delaunay,Delaunay,Moon,44.63,-22.26,2.62,"Planetographic, +East, -180 - 180","Crater, craters",Approved,Charles-Eugène; French astronomer (1816-1872).
Delia,Delia,Moon,1.57,-10.91,-6.13,"Planetographic, +East, -180 - 180","Crater, craters",Approved,Greek female name.
Delisle,Delisle,Moon,24.83,29.98,-34.68,"Planetographic, +East, -180 - 180","Crater, craters",Approved,Joseph Nicolas; French astronomer (1688-1768).
Dellinger,Dellinger,Moon,82.04,-6.87,140.70,"Planetographic, +East, -180 - 180","Crater, craters",Approved,John Howard; American physicist (1886-1962).
Delmotte,Delmotte,Moon,32.16,27.16,60.20,"Planetographic, +East, -180 - 180","Crater, craters",Approved,Gabriel; French astronomer (1876-1950).
Delporte,Delporte,Moon,42.50,-15.89,121.55,"Planetographic, +East, -180 - 180","Crater, craters",Approved,Eugène Joseph; Belgian astronomer (1882-1955).
Deluc,Deluc,Moon,45.69,-55.02,-2.98,"Planetographic, +East, -180 - 180","Crater, craters",Approved,"Jean Andre; Swiss geologist, physicist (1727-1817)."
Dembowski,Dembowski,Moon,26.11,2.88,7.27,"Planetographic, +East, -180 - 180","Crater, craters",Approved,Baron Ercole; Italian astronomer (1815-1881).
Democritus,Democritus,Moon,37.78,62.31,34.99,"Planetographic, +East, -180 - 180","Crater, craters",Approved,"Greek astronomer, philosopher (c. 460-360 B.C.)."
Demonax,Demonax,Moon,121.93,-78.09,59.36,"Planetographic, +East, -180 - 180","Crater, craters",Approved,Greek philosopher (fl. 2nd century A.D.).
De Moraes,De Moraes,Moon,54.41,49.38,143.00,"Planetographic, +East, -180 - 180","Crater, craters",Approved,Abraao de; Brazilian astronomer (1916-1970).
De Morgan,De Morgan,Moon,9.68,3.31,14.89,"Planetographic, +East, -180 - 180","Crater, craters",Approved,Augustus; British mathematician (1806-1871).
Denning,Denning,Moon,44.18,-16.26,142.76,"Planetographic, +East, -180 - 180","Crater, craters",Approved,William Fredrick; British astronomer (1848-1931).
De Roy,De Roy,Moon,43.51,-55.24,-98.99,"Planetographic, +East, -180 - 180","Crater, craters",Approved,Felix; Belgian astronomer (1883-1942).
Desargues,Desargues,Moon,84.85,70.25,-73.42,"Planetographic, +East, -180 - 180","Crater, craters",Approved,"Gérard; French mathematician, engineer (1593-1662)."
Descartes,Descartes,Moon,47.73,-11.74,15.67,"Planetographic, +East, -180 - 180","Crater, craters",Approved,"René; French mathematician, philosopher (1596-1650)."
Deseilligny,Deseilligny,Moon,6.01,21.13,20.59,"Planetographic, +East, -180 - 180","Crater, craters",Approved,Jules Alfred Pierrot; French selenographer (1868-1918).
De Sitter,De Sitter,Moon,63.79,79.81,38.57,"Planetographic, +East, -180 - 180","Crater, craters",Approved,Willem; Dutch astronomer (1872-1934).
Deslandres,Deslandres,Moon,227.02,-32.55,-5.57,"Planetographic, +East, -180 - 180","Crater, craters",Approved,Henri Alexandre; French astrophysicist (1853-1948).
Deutsch,Deutsch,Moon,73.33,24.35,110.91,"Planetographic, +East, -180 - 180","Crater, craters",Approved,Armin Joseph; American astronomer (1918-1969).
De Vico,De Vico,Moon,22.13,-19.71,-60.32,"Planetographic, +East, -180 - 180","Crater, craters",Approved,Francesco; Italian astronomer (1805-1848).
De Vries,De Vries,Moon,57.51,-19.68,-176.78,"Planetographic, +East, -180 - 180","Crater, craters",Approved,Hugo Marie; Dutch botanist (1848-1935).
Dewar,Dewar,Moon,46.31,-2.61,165.62,"Planetographic, +East, -180 - 180","Crater, craters",Approved,Sir James; British chemist (1842-1923).
Diana,Diana,Moon,1.55,14.29,35.65,"Planetographic, +East, -180 - 180","Crater, craters",Approved,Latin female name.
Diderot,Diderot,Moon,20.00,-20.42,121.54,"Planetographic, +East, -180 - 180","Crater, craters",Approved,Denis; French philosopher (1713-1784).
Dionysius,Dionysius,Moon,17.25,2.77,17.29,"Planetographic, +East, -180 - 180","Crater, craters",Approved,St. Dionysius the Areopagite; Greek astronomer (fl. 1st century A.D.).
Diophantus,Diophantus,Moon,17.57,27.62,-34.30,"Planetographic, +East, -180 - 180","Crater, craters",Approved,Greek mathematician (unkn-c. A.D. 300).
Dirichlet,Dirichlet,Moon,47.24,10.58,-152.05,"Planetographic, +East, -180 - 180","Crater, craters",Approved,Peter Gustav Lejeune; German mathematician (1805-1859).
Dobrovol'skiy,Dobrovol skiy,Moon,38.40,-12.83,129.68,"Planetographic, +East, -180 - 180","Crater, craters",Approved,Georgy Timofeyevich; Soviet cosmonaut (1928-1971).
Doerfel,Doerfel,Moon,68.63,-68.97,-108.53,"Planetographic, +East, -180 - 180","Crater, craters",Approved,Georg Samuel; German astronomer (1643-1688).
Dollond,Dollond,Moon,11.04,-10.48,14.41,"Planetographic, +East, -180 - 180","Crater, craters",Approved,John; British optician (1706-1761).
Donati,Donati,Moon,35.84,-20.69,5.10,"Planetographic, +East, -180 - 180","Crater, craters",Approved,Giovanni Battista; Italian astronomer (1826-1873).
Donna,Donna,Moon,1.84,7.22,38.30,"Planetographic, +East, -180 - 180","Crater, craters",Approved,Italian female name.
Donner,Donner,Moon,55.05,-31.35,97.99,"Planetographic, +East, -180 - 180","Crater, craters",Approved,Anders Severin; Finnish astronomer (1854-1938).
Doppelmayer,Doppelmayer,Moon,65.08,-28.48,-41.51,"Planetographic, +East, -180 - 180","Crater, craters",Approved,"Johann Gabriel; German mathematician, astronomer (1671-1750)."
Doppler,Doppler,Moon,101.79,-12.58,-159.84,"Planetographic, +East, -180 - 180","Crater, craters",Approved,"Johann Christian; Austrian physicist, mathematician, astronomer (1803-1853)."
Douglass,Douglass,Moon,50.95,35.50,-122.72,"Planetographic, +East, -180 - 180","Crater, craters",Approved,Andrew Ellicott; American astronomer (1867-1962).
Dove,Dove,Moon,30.36,-46.83,31.42,"Planetographic, +East, -180 - 180","Crater, craters",Approved,Heinrich Wilhelm; German physicist (1803-1879).
Draper,Draper,Moon,8.28,17.56,-21.75,"Planetographic, +East, -180 - 180","Crater, craters",Approved,Henry; American astronomer (1837-1882).
Drebbel,Drebbel,Moon,30.23,-40.93,-49.12,"Planetographic, +East, -180 - 180","Crater, craters",Approved,Cornelius; Dutch inventor (1572-1634).
Dreyer,Dreyer,Moon,63.84,10.24,97.09,"Planetographic, +East, -180 - 180","Crater, craters",Approved,Johann Ludwig Emil; Danish astronomer (1852-1926).
Drude,Drude,Moon,27.13,-38.56,-91.89,"Planetographic, +East, -180 - 180","Crater, craters",Approved,Paul Karl Ludwig; German physicist (1863-1906).
Dryden,Dryden,Moon,54.45,-33.21,-156.15,"Planetographic, +East, -180 - 180","Crater, craters",Approved,"Hugh Latimer; American physicist, engineer (1898-1965)."
Drygalski,Drygalski,Moon,162.49,-79.57,-87.18,"Planetographic, +East, -180 - 180","Crater, craters",Approved,"Erich Dagobert von; German geographer, geophysicist (1865-1949)."
Dubyago,Dubyago,Moon,48.12,4.38,69.95,"Planetographic, +East, -180 - 180","Crater, craters",Approved,Dmitrij Ivanovich; Russian astronomer (1850-1918); Alexander Dmitrievich; Soviet astronomer (1903-1959).
Dufay,Dufay,Moon,36.11,5.57,169.54,"Planetographic, +East, -180 - 180","Crater, craters",Approved,Jean Claude Barthélemy; French astronomer (1896-1967).
Dugan,Dugan,Moon,49.65,64.12,103.11,"Planetographic, +East, -180 - 180","Crater, craters",Approved,Raymond Smith; American astronomer (1878-1940).
Dunér,Duner,Moon,65.07,44.68,179.46,"Planetographic, +East, -180 - 180","Crater, craters",Approved,Nils Christofer; Swedish astronomer (1839-1914).
Dunthorne,Dunthorne,Moon,15.12,-30.12,-31.71,"Planetographic, +East, -180 - 180","Crater, craters",Approved,Richard; British astronomer (1711-1775).
Dyson,Dyson,Moon,63.14,60.87,-121.71,"Planetographic, +East, -180 - 180","Crater, craters",Approved,Sir Frank Watson; British astronomer (1868-1939).
Dziewulski,Dziewulski,Moon,68.90,20.99,99.02,"Planetographic, +East, -180 - 180","Crater, craters",Approved,Wladyslaw; Polish astronomer (1878-1962).
Easley,Easley,Moon,9.00,-23.69,87.97,"Planetographic, +East, -180 - 180","Crater, craters",Approved,"Annie Jean; American computer scientist, mathematician, and rocket scientist (1933-2011)."
Eckert,Eckert,Moon,2.62,17.28,58.38,"Planetographic, +East, -180 - 180","Crater, craters",Approved,Wallace John; American astronomer (1902-1971).
Eddington,Eddington,Moon,120.13,21.50,-72.02,"Planetographic, +East, -180 - 180","Crater, craters",Approved,"Sir Arthur Stanley; British astrophysicist, mathematician (1882-1944)."
Edison,Edison,Moon,62.72,24.88,99.27,"Planetographic, +East, -180 - 180","Crater, craters",Approved,Thomas Alva; American inventor (1847-1931).
Edith,Edith,Moon,6.92,-25.77,102.33,"Planetographic, +East, -180 - 180","Crater, craters",Approved,English female name.
Egede,Egede,Moon,34.18,48.72,10.64,"Planetographic, +East, -180 - 180","Crater, craters",Approved,Hans; Danish natural historian (1686-1758).
Ehrlich,Ehrlich,Moon,33.58,40.82,-172.27,"Planetographic, +East, -180 - 180","Crater, craters",Approved,Paul; German doctor; Nobel laureate (1854-1915).
Eichstadt,Eichstadt,Moon,49.57,-22.63,-78.42,"Planetographic, +East, -180 - 180","Crater, craters",Approved,"Lorentz; German mathematician, astronomer (1596-1660)."
Eijkman,Eijkman,Moon,56.36,-63.21,-142.51,"Planetographic, +East, -180 - 180","Crater, craters",Approved,Christiaan; Dutch doctor; Nobel laureate (1858-1930).
Eimmart,Eimmart,Moon,44.99,23.97,64.80,"Planetographic, +East, -180 - 180","Crater, craters",Approved,Georg Christoph; German astronomer (1638-1705).
Einstein,Einstein,Moon,181.47,16.60,-88.65,"Planetographic, +East, -180 - 180","Crater, craters",Approved,Albert; German-American physicist; Nobel laureate (1879-1955).
Einthoven,Einthoven,Moon,73.94,-5.06,110.06,"Planetographic, +East, -180 - 180","Crater, craters",Approved,Willem; Dutch physiologist; Nobel laureate (1860-1927).
Elger,Elger,Moon,21.51,-35.40,-29.81,"Planetographic, +East, -180 - 180","Crater, craters",Approved,Thomas Gwyn Empy; British astronomer (1836-1897).
Ellerman,Ellerman,Moon,46.21,-25.44,-120.39,"Planetographic, +East, -180 - 180","Crater, craters",Approved,Ferdinand; American astronomer (1869-1940).
Ellison,Ellison,Moon,36.99,54.93,-108.05,"Planetographic, +East, -180 - 180","Crater, craters",Approved,Mervyn Archdall; Irish-born British astronomer (1909-1963).
Elmer,Elmer,Moon,16.86,-10.23,84.18,"Planetographic, +East, -180 - 180","Crater, craters",Approved,Charles Wesley; American astronomer (1872-1954).
Elvey,Elvey,Moon,80.21,9.01,-100.64,"Planetographic, +East, -180 - 180","Crater, craters",Approved,"Christian Thomas; American astronomer, geophysicist (1899-1970)."
Emden,Emden,Moon,114.64,62.76,-176.51,"Planetographic, +East, -180 - 180","Crater, craters",Approved,"Robert; Swiss astrophysicist, meteorologist (1862-1940)."
Encke,Encke,Moon,28.27,4.57,-36.68,"Planetographic, +East, -180 - 180","Crater, craters",Approved,"Johann Franz; German mathematician, astronomer (1791-1865)."
Endymion,Endymion,Moon,122.10,53.61,56.48,"Planetographic, +East, -180 - 180","Crater, craters",Approved,Greek mythological character.
Engel'gardt (Engelhardt),Engel gardt  Engelhardt,Moon,43.51,5.39,-159.47,"Planetographic, +East, -180 - 180","Crater, craters",Approved,Vasilij Pavlovich; Russian astronomer (1828-1915).
Eötvös,Eotvos,Moon,101.80,-35.61,134.43,"Planetographic, +East, -180 - 180","Crater, craters",Approved,Lóránt (English - Roland) von; Hungarian physicist (1848-1919).
Epigenes,Epigenes,Moon,54.51,67.50,-4.62,"Planetographic, +East, -180 - 180","Crater, craters",Approved,Greek astronomer (unkn-c. 200 B.C.).
Epimenides,Epimenides,Moon,22.56,-40.92,-30.33,"Planetographic, +East, -180 - 180","Crater, craters",Approved,"Greek philosopher, writer (unkn-fl. 596 B.C.)."
Eratosthenes,Eratosthenes,Moon,58.77,14.47,-11.32,"Planetographic, +East, -180 - 180","Crater, craters",Approved,"Greek astronomer, geographer (c. 276-196 B.C.)."
Erlanger,Erlanger,Moon,10.94,86.99,28.62,"Planetographic, +East, -180 - 180","Crater, craters",Approved,"Joseph; American physiologist, Nobel Prize winner 1944 (1874-1965)."
Erro,Erro,Moon,63.75,5.68,98.54,"Planetographic, +East, -180 - 180","Crater, craters",Approved,Luis Enrique; Mexican astronomer (1897-1955).
Esclangon,Esclangon,Moon,15.29,21.47,42.06,"Planetographic, +East, -180 - 180","Crater, craters",Approved,Ernest Benjamin; French astronomer (1876-1954).
Esnault-Pelterie,Esnault Pelterie,Moon,76.79,47.41,-141.83,"Planetographic, +East, -180 - 180","Crater, craters",Approved,Robert-Albert-Charles; French rocketry engineer (1881-1957).
Espin,Espin,Moon,70.01,28.15,109.34,"Planetographic, +East, -180 - 180","Crater, craters",Approved,Thomas Henry Espinall Compton; British astronomer (1858-1934).
Euclides,Euclides,Moon,11.80,-7.40,-29.56,"Planetographic, +East, -180 - 180","Crater, craters",Approved,Euclid; Greek mathematician (unkn-c. 300 B.C.).
Euctemon,Euctemon,Moon,62.70,76.26,30.57,"Planetographic, +East, -180 - 180","Crater, craters",Approved,Greek astronomer (unkn-fl. 432 B.C.).
Eudoxus,Eudoxus,Moon,70.16,44.27,16.23,"Planetographic, +East, -180 - 180","Crater, craters",Approved,Greek astronomer (c. 408-355 B.C.).
Euler,Euler,Moon,26.03,23.26,-29.18,"Planetographic, +East, -180 - 180","Crater, craters",Approved,Leonhard; Swiss mathematician (1707-1783).
Evans,Evans,Moon,69.40,-9.63,-133.78,"Planetographic, +East, -180 - 180","Crater, craters",Approved,Sir Arthur; British archaeologist (1851-1941).
Evdokimov,Evdokimov,Moon,48.88,34.57,-153.04,"Planetographic, +East, -180 - 180","Crater, craters",Approved,Nikolaj N.; Soviet astronomer (1868-1940).
Evershed,Evershed,Moon,65.28,35.30,-159.51,"Planetographic, +East, -180 - 180","Crater, craters",Approved,John; British astronomer (1864-1956).
Ewen,Ewen,Moon,2.60,7.69,121.46,"Planetographic, +East, -180 - 180","Crater, craters",Approved,Gaelic male name.
Fabbroni,Fabbroni,Moon,10.55,18.66,29.27,"Planetographic, +East, -180 - 180","Crater, craters",Approved,Giovanni Valentino Mattia; Italian chemist (1752-1822).
Fabricius,Fabricius,Moon,78.90,-42.75,41.84,"Planetographic, +East, -180 - 180","Crater, craters",Approved,"Goldschmidt, David; Dutch astronomer (1564-1617)."
Fabry,Fabry,Moon,179.44,43.07,100.68,"Planetographic, +East, -180 - 180","Crater, craters",Approved,Charles; French physicist (1867-1945).
Fahrenheit,Fahrenheit,Moon,6.65,13.12,61.71,"Planetographic, +East, -180 - 180","Crater, craters",Approved,Gabriel Daniel; Dutch physicist (1686-1736).
Fairouz,Fairouz,Moon,2.87,-26.07,102.95,"Planetographic, +East, -180 - 180","Crater, craters",Approved,Arab female name.
Faraday,Faraday,Moon,69.03,-42.45,8.75,"Planetographic, +East, -180 - 180","Crater, craters",Approved,"Michael; British chemist, physicist (1791-1867)."
Faustini,Faustini,Moon,42.48,-87.18,84.31,"Planetographic, +East, -180 - 180","Crater, craters",Approved,Arnaldo; Italian polar geographer (1874-1944).
Fauth,Fauth,Moon,11.94,6.23,-20.14,"Planetographic, +East, -180 - 180","Crater, craters",Approved,Philipp Johann Heinrich; German selenographer (1867-1941).
Faye,Faye,Moon,38.02,-21.39,3.81,"Planetographic, +East, -180 - 180","Crater, craters",Approved,Hervé-Auguste-Etienne-Albans; French astronomer (1814-1902).
Fechner,Fechner,Moon,59.32,-58.25,125.03,"Planetographic, +East, -180 - 180","Crater, craters",Approved,"Gustav Theodor; German physicist, psychologist, and philosopher (1801-1887)."
Fedorov,Fedorov,Moon,6.08,28.23,-37.05,"Planetographic, +East, -180 - 180","Crater, craters",Approved,A.P.; Russian rocket scientist (1872-1920).
Felix,Felix,Moon,1.45,25.09,-25.38,"Planetographic, +East, -180 - 180","Crater, craters",Approved,Latin male name.
Fényi,Fenyi,Moon,43.31,-44.94,-105.06,"Planetographic, +East, -180 - 180","Crater, craters",Approved,Gyula; Hungarian astronomer (1845-1927).
Feoktistov,Feoktistov,Moon,22.06,30.73,140.50,"Planetographic, +East, -180 - 180","Crater, craters",Approved,Konstantin P.; Soviet cosmonaut (1926-2009).
Fermat,Fermat,Moon,37.77,-22.71,19.79,"Planetographic, +East, -180 - 180","Crater, craters",Approved,Pierre De; French mathematician (1601-1665).
Fermi,Fermi,Moon,241.41,-19.61,123.24,"Planetographic, +East, -180 - 180","Crater, craters",Approved,Enrico; Italian-American physicist; Nobel laureate (1901-1954).
Fernelius,Fernelius,Moon,68.42,-38.18,4.86,"Planetographic, +East, -180 - 180","Crater, craters",Approved,"Jean François; French doctor, astronomer (1497-1558)."
Fersman,Fersman,Moon,148.14,17.90,-126.06,"Planetographic, +East, -180 - 180","Crater, craters",Approved,Aleksandr Yevgenyevich; Soviet geochemist (1883-1945).
Fesenkov,Fesenkov,Moon,36.12,-23.16,135.14,"Planetographic, +East, -180 - 180","Crater, craters",Approved,Vasilii Grigor'evich; Russian astrophysicist (1889-1972).
Feuillée,Feuillee,Moon,8.94,27.37,-9.46,"Planetographic, +East, -180 - 180","Crater, craters",Approved,Louis; French natural scientist (1660-1732).
Fibiger,Fibiger,Moon,21.10,86.14,37.13,"Planetographic, +East, -180 - 180","Crater, craters",Approved,"Joahnnes Andreas Grib; Danish pathologist, Nobel Prize winner 1926 (1867-1928)."
Finsch,Finsch,Moon,4.05,23.58,21.27,"Planetographic, +East, -180 - 180","Crater, craters",Approved,Otto Friedrich Hermann; German zoologist (1839-1917).
Finsen,Finsen,Moon,72.98,-42.29,-177.72,"Planetographic, +East, -180 - 180","Crater, craters",Approved,Niels Ryberg; Danish phototherapist; Nobel laureate (1860-1904).
Firmicus,Firmicus,Moon,56.81,7.25,63.43,"Planetographic, +East, -180 - 180","Crater, craters",Approved,Julius Maternus of Syracuse; Roman astrologer (fl. A.D. 330-354).
Firsov,Firsov,Moon,51.00,4.20,112.70,"Planetographic, +East, -180 - 180","Crater, craters",Approved,Georgij Frolovich; Soviet rocketry engineer (1917-1960).
Fischer,Fischer,Moon,30.48,7.99,142.44,"Planetographic, +East, -180 - 180","Crater, craters",Approved,Emil Hermann; German chemist (1852-1919); Hans; German organic chemist (1881-1945).
Fitzgerald,Fitzgerald,Moon,104.21,26.67,-172.14,"Planetographic, +East, -180 - 180","Crater, craters",Approved,George Francis; Irish physicist (1851-1901).
Fizeau,Fizeau,Moon,107.08,-58.19,-134.11,"Planetographic, +East, -180 - 180","Crater, craters",Approved,Armand-Hippolyte-Louis; French physicist (1819-1896).
Flammarion,Flammarion,Moon,76.18,-3.33,-3.73,"Planetographic, +East, -180 - 180","Crater, craters",Approved,Camille; French astronomer (1842-1925).
Flamsteed,Flamsteed,Moon,19.34,-4.49,-44.34,"Planetographic, +East, -180 - 180","Crater, craters",Approved,John; British astronomer (1646-1719).
Fleming,Fleming,Moon,126.37,14.91,109.28,"Planetographic, +East, -180 - 180","Crater, craters",Approved,"Alexander; British doctor, Nobel laureate (1881-1955); Williamina Paton; Scottish-born American astronomer (1857-1911)."
Florensky,Florensky,Moon,69.03,25.45,131.85,"Planetographic, +East, -180 - 180","Crater, craters",Approved,Kirill Pavlovich; Soviet geologist (1915-1982).
Florey,Florey,Moon,69.06,87.04,-19.75,"Planetographic, +East, -180 - 180","Crater, craters",Approved,"Howard Walter; Australian-born British pathologist, Nobel Prize winner 1945 (1898-1968)."
Focas,Focas,Moon,22.04,-33.70,-93.91,"Planetographic, +East, -180 - 180","Crater, craters",Approved,Ionnas (Jean-Henri); Greek/French astronomer (1909-1969).
Fontana,Fontana,Moon,31.47,-16.04,-56.79,"Planetographic, +East, -180 - 180","Crater, craters",Approved,Francesco; Italian astronomer (c. 1585-1646).
Fontenelle,Fontenelle,Moon,37.68,63.42,-18.96,"Planetographic, +East, -180 - 180","Crater, craters",Approved,Bernard Le Bovier De; French astronomer (1657-1757).
Foster,Foster,Moon,37.02,23.59,-141.49,"Planetographic, +East, -180 - 180","Crater, craters",Approved,John Stuart; Canadian physicist (1890-1964).
Foucault,Foucault,Moon,25.08,50.46,-39.86,"Planetographic, +East, -180 - 180","Crater, craters",Approved,Leon; French physicist (1819-1868).
Fourier,Fourier,Moon,51.57,-30.31,-53.10,"Planetographic, +East, -180 - 180","Crater, craters",Approved,Jean-Baptiste Joseph; French mathematician (1768-1830).
Fowler,Fowler,Moon,139.52,42.59,-145.27,"Planetographic, +East, -180 - 180","Crater, craters",Approved,Alfred; British astronomer (1868-1940); Ralph Howard; British mathematician; physicist (1889-1944).
Fox,Fox,Moon,23.97,0.47,98.14,"Planetographic, +East, -180 - 180","Crater, craters",Approved,Philip; American astronomer (1878-1944).
Fracastorius,Fracastorius,Moon,120.58,-21.36,33.07,"Planetographic, +East, -180 - 180","Crater, craters",Approved,"Fracastoro, Girolamo; Italian doctor, astronomer (1483-1553)."
Fra Mauro,Fra Mauro,Moon,96.76,-6.06,-16.97,"Planetographic, +East, -180 - 180","Crater, craters",Approved,Italian geographer (unkn-1459).
Franck,Franck,Moon,11.91,22.59,35.56,"Planetographic, +East, -180 - 180","Crater, craters",Approved,James; German physicist; Nobel laureate (1882-1964).
Franklin,Franklin,Moon,55.92,38.73,47.64,"Planetographic, +East, -180 - 180","Crater, craters",Approved,Benjamin; American inventor (1706-1790).
Franz,Franz,Moon,25.48,16.57,40.24,"Planetographic, +East, -180 - 180","Crater, craters",Approved,Julius Heinrich; German astronomer (1847-1913).
Fraunhofer,Fraunhofer,Moon,57.75,-39.52,59.06,"Planetographic, +East, -180 - 180","Crater, craters",Approved,"Joseph von; German astronomer, optician (1787-1826)."
Fredholm,Fredholm,Moon,13.39,18.37,46.55,"Planetographic, +East, -180 - 180","Crater, craters",Approved,Erik Ivar; Swedish mathematician (1866-1927).
Freud,Freud,Moon,2.85,25.79,-52.40,"Planetographic, +East, -180 - 180","Crater, craters",Approved,Sigmund; Austrian psychoanalyst (1856-1939).
Freundlich,Freundlich,Moon,83.16,25.00,170.89,"Planetographic, +East, -180 - 180","Crater, craters",Approved,Erwin (Finlay-); German-British astronomer (1885-1964).
Fridman (Friedmann),Fridman  Friedmann,Moon,101.45,-12.48,-126.88,"Planetographic, +East, -180 - 180","Crater, craters",Approved,Aleksandr Alexandrovich; Soviet physicist (1888-1925).
Froelich,Froelich,Moon,56.73,80.00,-111.63,"Planetographic, +East, -180 - 180","Crater, craters",Approved,Jack Edward (Froehlich); American rocket scientist (1921-1967).
Frost,Frost,Moon,78.30,37.41,-118.90,"Planetographic, +East, -180 - 180","Crater, craters",Approved,Edwin Brant; American astronomer (1866-1935).
Fryxell,Fryxell,Moon,17.62,-21.25,-101.65,"Planetographic, +East, -180 - 180","Crater, craters",Approved,Roald Hilding; American geologist (1934-1974).
Furnerius,Furnerius,Moon,135.03,-36.00,60.54,"Planetographic, +East, -180 - 180","Crater, craters",Approved,"Fournier, Georges: French mathematician (1595-1652)."
Gadomski,Gadomski,Moon,65.66,36.21,-147.36,"Planetographic, +East, -180 - 180","Crater, craters",Approved,Jan; Polish astronomer (1889-1966).
Gagarin,Gagarin,Moon,261.83,-19.66,149.35,"Planetographic, +East, -180 - 180","Crater, craters",Approved,Yury Alekseyevich; Soviet cosmonaut (1934-1968).
Galen,Galen,Moon,9.18,21.95,4.96,"Planetographic, +East, -180 - 180","Crater, craters",Approved,Claudius; Greek doctor (c. 129-200).
Galilaei,Galilaei,Moon,15.99,10.48,-62.83,"Planetographic, +East, -180 - 180","Crater, craters",Approved,"Galileo; Italian astronomer, physicist (1564-1642)."
Galle,Galle,Moon,20.96,55.87,22.33,"Planetographic, +East, -180 - 180","Crater, craters",Approved,Johann Gottfried; German astronomer (1812-1910).
Galois,Galois,Moon,231.97,-13.94,-152.99,"Planetographic, +East, -180 - 180","Crater, craters",Approved,Evariste; French mathematician (1811-1832).
Galvani,Galvani,Moon,76.83,49.51,-84.56,"Planetographic, +East, -180 - 180","Crater, craters",Approved,Luigi; Italian physicist (1737-1798).
Gambart,Gambart,Moon,24.68,0.92,-15.24,"Planetographic, +East, -180 - 180","Crater, craters",Approved,Jean-Felix-Adolphe; French astronomer (1800-1836).
Gamow,Gamow,Moon,113.92,65.29,144.65,"Planetographic, +East, -180 - 180","Crater, craters",Approved,George; American physicist (1904-1968).
Ganskiy (Hansky),Ganskiy  Hansky,Moon,42.11,-9.64,97.00,"Planetographic, +East, -180 - 180","Crater, craters",Approved,Aleksey Pavlovich; Russian astronomer (1870-1908).
Ganswindt,Ganswindt,Moon,77.52,-79.42,111.17,"Planetographic, +East, -180 - 180","Crater, craters",Approved,Hermann; German rocketry engineer (1856-1934).
Garavito,Garavito,Moon,81.05,-47.21,156.78,"Planetographic, +East, -180 - 180","Crater, craters",Approved,Julio Garavito Armero; Colombian astronomer (1865-1920).
Gardner,Gardner,Moon,17.62,17.75,33.81,"Planetographic, +East, -180 - 180","Crater, craters",Approved,Irvine Clifton; American physicist (1889-1972).
Gärtner,Gartner,Moon,101.79,59.24,34.76,"Planetographic, +East, -180 - 180","Crater, craters",Approved,"Christian; German mineralogist, geologist (c. 1750-1813)."
Gassendi,Gassendi,Moon,111.39,-17.55,-39.96,"Planetographic, +East, -180 - 180","Crater, craters",Approved,"Pierre; French astronomer, mathematician (1592-1655)."
Gaston,Gaston,Moon,2.02,30.88,-33.96,"Planetographic, +East, -180 - 180","Crater, craters",Approved,French male name.
Gaudibert,Gaudibert,Moon,33.14,-10.93,37.82,"Planetographic, +East, -180 - 180","Crater, craters",Approved,Casimir Marie; French astronomer (1823-1901).
Gauricus,Gauricus,Moon,79.64,-33.91,-12.74,"Planetographic, +East, -180 - 180","Crater, craters",Approved,"Gaurico, Luca; Italian astronomer (1476-1558)."
Gauss,Gauss,Moon,170.72,36.01,79.08,"Planetographic, +East, -180 - 180","Crater, craters",Approved,Karl Friedrich; German mathematician (1777-1855).
Gavrilov,Gavrilov,Moon,61.62,17.41,131.22,"Planetographic, +East, -180 - 180","Crater, craters",Approved,"Aleksandr Ivanovich; Soviet rocket engineer (1884-1955), Igor V.; Soviet astronomer (1928-1982)."
Gay-Lussac,Gay Lussac,Moon,25.40,13.88,-20.79,"Planetographic, +East, -180 - 180","Crater, craters",Approved,Joseph Louis; French physicist (1778-1850).
G. Bond,G  Bond,Moon,19.05,32.39,36.32,"Planetographic, +East, -180 - 180","Crater, craters",Approved,George Philip; American astronomer (1826-1865).
Geber,Geber,Moon,44.67,-19.46,13.85,"Planetographic, +East, -180 - 180","Crater, craters",Approved,"Jābir Ibn Aflah Al-Ishbīlī, Abū Muhammad; Spanish-Arab astronomer (fl. first half of twelfth cent.)."
Geiger,Geiger,Moon,36.63,-14.39,158.41,"Planetographic, +East, -180 - 180","Crater, craters",Approved,Johannes Hans Wilhelm; German physicist (1882-1945).
Geissler,Geissler,Moon,17.39,-2.60,76.51,"Planetographic, +East, -180 - 180","Crater, craters",Approved,Heinrich; German physicist (1814-1879).
Geminus,Geminus,Moon,81.98,34.42,56.66,"Planetographic, +East, -180 - 180","Crater, craters",Approved,Greek astronomer (unkn-c. 70 B.C.).
Gemma Frisius,Gemma Frisius,Moon,88.54,-34.33,13.37,"Planetographic, +East, -180 - 180","Crater, craters",Approved,"Jemma, Reinier; Dutch doctor (1508-1555)."
Gena,Gena,Moon,0.20,38.27,-35.01,"Planetographic, +East, -180 - 180","Crater, craters",Approved,Greek-derived male name Gennady in Russian diminutive form (Lunokhod-1 landing site feature).
Gerard,Gerard,Moon,98.78,44.54,-80.51,"Planetographic, +East, -180 - 180","Crater, craters",Approved,Alexander; Scottish explorer (1792-1839).
Gerasimovich,Gerasimovich,Moon,90.19,-22.95,-123.42,"Planetographic, +East, -180 - 180","Crater, craters",Approved,Boris Petrovich; Soviet astronomer (1889-1937).
Gernsback,Gernsback,Moon,47.20,-36.53,99.53,"Planetographic, +East, -180 - 180","Crater, craters",Approved,Hugo; American writer (1884-1967).
Gibbs,Gibbs,Moon,78.76,-18.37,84.27,"Planetographic, +East, -180 - 180","Crater, craters",Approved,Josiah Willard; American mathematical physicist (1839-1903).
Gilbert,Gilbert,Moon,100.25,-3.20,76.16,"Planetographic, +East, -180 - 180","Crater, craters",Approved,"Grove Karl; American geologist (1843-1918), William; English physician and physicist (1544-1603)."
Gill,Gill,Moon,63.90,-63.77,75.95,"Planetographic, +East, -180 - 180","Crater, craters",Approved,Sir David; British astronomer (1843-1914).
Ginzel,Ginzel,Moon,53.23,14.25,97.40,"Planetographic, +East, -180 - 180","Crater, craters",Approved,Friedrich Karl; Austrian astronomer (1850-1926).
Gioja,Gioja,Moon,42.47,83.35,1.76,"Planetographic, +East, -180 - 180","Crater, craters",Approved,Flavio; Italian inventor (unkn-fl. 1302).
Giordano Bruno,Giordano Bruno,Moon,22.13,35.97,102.89,"Planetographic, +East, -180 - 180","Crater, craters",Approved,Italian astronomer (1548-1600).
Glaisher,Glaisher,Moon,15.92,13.19,49.34,"Planetographic, +East, -180 - 180","Crater, craters",Approved,James; British meteorologist (1809-1903).
Glauber,Glauber,Moon,15.24,11.32,142.67,"Planetographic, +East, -180 - 180","Crater, craters",Approved,Johann Rudolph; German chemist (c. 1603-1670).
Glazenap,Glazenap,Moon,38.96,-1.85,137.76,"Planetographic, +East, -180 - 180","Crater, craters",Approved,Sergei Pavlovich; Soviet astronomer (1848-1937).
Glushko,Glushko,Moon,40.10,8.11,-77.67,"Planetographic, +East, -180 - 180","Crater, craters",Approved,Valentin Petrovich; Russian space scientist (1908-1989).
Goclenius,Goclenius,Moon,73.04,-10.05,45.03,"Planetographic, +East, -180 - 180","Crater, craters",Approved,"Gockel, Rudolf; German physicist, doctor, mathematician (1572-1621)."
Goddard,Goddard,Moon,93.18,15.15,89.13,"Planetographic, +East, -180 - 180","Crater, craters",Approved,Robert Hutchings; American rocketry scientist (1882-1945).
Godin,Godin,Moon,34.25,1.82,10.16,"Planetographic, +East, -180 - 180","Crater, craters",Approved,"Louis; French astronomer, mathematician (1704-1760)."
Goldschmidt,Goldschmidt,Moon,115.26,73.04,-3.37,"Planetographic, +East, -180 - 180","Crater, craters",Approved,"Hermann; French astronomer of German origin, discoverer of asteroid (21) Lutetia (1802-1866)."
Golgi,Golgi,Moon,5.58,27.78,-59.96,"Planetographic, +East, -180 - 180","Crater, craters",Approved,Camillo; Italian doctor; Nobel laureate (c. 1843-1926).
Golitsyn,Golitsyn,Moon,35.47,-25.20,-105.20,"Planetographic, +East, -180 - 180","Crater, craters",Approved,Boris Borisovich; Russian physicist (1862-1916).
Golovin,Golovin,Moon,37.86,39.75,161.24,"Planetographic, +East, -180 - 180","Crater, craters",Approved,Nicholas Erasmus; American rocketry scientist (1912-1969).
Goodacre,Goodacre,Moon,44.09,-32.67,14.08,"Planetographic, +East, -180 - 180","Crater, craters",Approved,Walter; British selenographer (1856-1938).
Gore,Gore,Moon,9.41,86.18,-62.31,"Planetographic, +East, -180 - 180","Crater, craters",Approved,John Ellard; Irish astronomer (1845-1910).
Gould,Gould,Moon,32.99,-19.26,-17.25,"Planetographic, +East, -180 - 180","Crater, craters",Approved,Benjamin Apthorp; American astronomer (1824-1896).
Grace,Grace,Moon,1.49,14.21,35.89,"Planetographic, +East, -180 - 180","Crater, craters",Approved,English female name.
Grachev,Grachev,Moon,34.98,-3.83,-108.42,"Planetographic, +East, -180 - 180","Crater, craters",Approved,Andrej Dmitrievich; Soviet rocketry scientist (1900-1964).
Graff,Graff,Moon,36.16,-42.30,-88.71,"Planetographic, +East, -180 - 180","Crater, craters",Approved,Kasimir Romuald; Polish-German astronomer (1878-1950).
Grave,Grave,Moon,36.95,-17.04,150.23,"Planetographic, +East, -180 - 180","Crater, craters",Approved,Dmitry Aleksandrovich; Soviet mathematician (1863-1939); Ivan Platonovich; Soviet engineer (1874-1960).
Greaves,Greaves,Moon,14.27,13.18,52.79,"Planetographic, +East, -180 - 180","Crater, craters",Approved,William Michael Herbert; British astronomer (1897-1955).
Green,Green,Moon,68.28,3.69,133.12,"Planetographic, +East, -180 - 180","Crater, craters",Approved,George; British mathematician (1793-1841).
Gregory,Gregory,Moon,63.90,1.76,127.28,"Planetographic, +East, -180 - 180","Crater, craters",Approved,"James; Scottish astronomer, mathematician (1638-1675)."
Grigg,Grigg,Moon,36.72,12.50,-130.13,"Planetographic, +East, -180 - 180","Crater, craters",Approved,John; New Zealander astronomer (1838-1920).
Grignard,Grignard,Moon,12.95,84.54,-75.83,"Planetographic, +East, -180 - 180","Crater, craters",Approved,"Victor; French chemist, Nobel Prize winner 1912 (1871-1935)."
Grimaldi,Grimaldi,Moon,235.00,-5.38,-68.36,"Planetographic, +East, -180 - 180","Crater, craters",Approved,"Francesco Maria; Italian astronomer, physicist (1618-1663)."
Grissom,Grissom,Moon,59.82,-46.92,-147.98,"Planetographic, +East, -180 - 180","Crater, craters",Approved,Virgil Ivan (“;Gus“;); American astronaut (1926-1967).
Grotrian,Grotrian,Moon,36.78,-66.15,128.28,"Planetographic, +East, -180 - 180","Crater, craters",Approved,Walter; German astronomer (1890-1954).
Grove,Grove,Moon,28.55,40.30,32.98,"Planetographic, +East, -180 - 180","Crater, craters",Approved,Sir William Robert; British physicist (1811-1896).
Gruemberger,Gruemberger,Moon,91.50,-67.04,-10.30,"Planetographic, +East, -180 - 180","Crater, craters",Approved,Christoph; Austrian astronomer (1561-1636).
Gruithuisen,Gruithuisen,Moon,14.98,32.89,-39.78,"Planetographic, +East, -180 - 180","Crater, craters",Approved,Franz von; German astronomer (1774-1852).
Guericke,Guericke,Moon,60.75,-11.57,-14.19,"Planetographic, +East, -180 - 180","Crater, craters",Approved,"Otto von; German physicist, engineer, naturalist (1602-1686)."
Guest,Guest,Moon,19.79,-19.79,117.39,"Planetographic, +East, -180 - 180","Crater, craters",Approved,John E.; British volcanologist (1938-2012).
Guillaume,Guillaume,Moon,56.75,45.16,-173.38,"Planetographic, +East, -180 - 180","Crater, craters",Approved,Charles Edouard; Swiss metallurgist; Nobel laureate (1861-1938).
Gullstrand,Gullstrand,Moon,45.05,44.95,-129.67,"Planetographic, +East, -180 - 180","Crater, craters",Approved,Allvar; Swedish ophthalmologist; Nobel laureate (1862-1930).
Gum,Gum,Moon,54.55,-40.34,88.91,"Planetographic, +East, -180 - 180","Crater, craters",Approved,Colin; Australian astronomer (1924-1960).
Gutenberg,Gutenberg,Moon,70.65,-8.61,41.25,"Planetographic, +East, -180 - 180","Crater, craters",Approved,Johannes Gensfleisch Zur Laden; German inventor (c. 1390-1468).
Guthnick,Guthnick,Moon,37.03,-47.76,-94.04,"Planetographic, +East, -180 - 180","Crater, craters",Approved,Paul; German astronomer (1879-1947).
Guyot,Guyot,Moon,98.28,11.63,117.12,"Planetographic, +East, -180 - 180","Crater, craters",Approved,"Arnold Henry; Swiss-born American geographer, geologist (1807-1884)."
Gyldén,Gylden,Moon,48.15,-5.37,0.23,"Planetographic, +East, -180 - 180","Crater, craters",Approved,Johan August Hugo; Swedish astronomer (1841-1896).
Haber,Haber,Moon,56.79,83.40,-94.63,"Planetographic, +East, -180 - 180","Crater, craters",Approved,"Fritz; German-Swiss chemist, Nobel Prize winner 1918 (1868-1934)."
Hagecius,Hagecius,Moon,79.55,-59.92,46.63,"Planetographic, +East, -180 - 180","Crater, craters",Approved,"Hayek, Thaddaeus; Czechoslovakian astronomer, mathematician (1525-1600)."
Hagen,Hagen,Moon,57.52,-48.32,135.95,"Planetographic, +East, -180 - 180","Crater, craters",Approved,Johann Georg; Austrian astronomer (1847-1930).
Hahn,Hahn,Moon,87.49,31.22,73.55,"Planetographic, +East, -180 - 180","Crater, craters",Approved,Friedrich von; German astronomer (1741-1805); Otto; German chemist (1879-1968).
Haidinger,Haidinger,Moon,21.33,-39.18,-25.14,"Planetographic, +East, -180 - 180","Crater, craters",Approved,"Wilhelm Karl von; Austrian geologist, physicist (1795-1871)."
Hainzel,Hainzel,Moon,70.56,-41.23,-33.52,"Planetographic, +East, -180 - 180","Crater, craters",Approved,Paul; German astronomer (1527-1581).
Haldane,Haldane,Moon,40.26,-1.66,84.11,"Planetographic, +East, -180 - 180","Crater, craters",Approved,John Burdon Sanderson; British doctor (1892-1964).
Hale,Hale,Moon,84.42,-74.13,91.71,"Planetographic, +East, -180 - 180","Crater, craters",Approved,George Ellery; American astronomer (1868-1938); William; British rocket scientist (1797-1870).
Hall,Hall,Moon,31.77,33.81,36.75,"Planetographic, +East, -180 - 180","Crater, craters",Approved,Asaph; American astronomer (1829-1907).
Halley,Halley,Moon,34.59,-8.05,5.73,"Planetographic, +East, -180 - 180","Crater, craters",Approved,Edmond; British astronomer (1656-1742).
Hamilton,Hamilton,Moon,57.45,-42.77,84.41,"Planetographic, +East, -180 - 180","Crater, craters",Approved,Sir William Rowan; Irish mathematician (1805-1865).
Hanno,Hanno,Moon,59.54,-56.46,71.38,"Planetographic, +East, -180 - 180","Crater, craters",Approved,Carthaginian navigator(unkn-c. 500 B.C.).
Hansen,Hansen,Moon,41.18,14.04,72.54,"Planetographic, +East, -180 - 180","Crater, craters",Approved,Peter Andreas; Danish astronomer (1795-1874).
Hansteen,Hansteen,Moon,44.99,-11.53,-52.06,"Planetographic, +East, -180 - 180","Crater, craters",Approved,Christopher; Norwegian astronomer (1784-1873).
Harden,Harden,Moon,14.98,5.46,143.55,"Planetographic, +East, -180 - 180","Crater, craters",Approved,Sir Arthur; British chemist; Nobel laureate (1865-1940).
Harding,Harding,Moon,22.57,43.54,-71.66,"Planetographic, +East, -180 - 180","Crater, craters",Approved,Karl Ludwig; German astronomer (1765-1834).
Haret,Haret,Moon,29.77,-58.77,-176.19,"Planetographic, +East, -180 - 180","Crater, craters",Approved,Spiru; Rumanian astronomer (1851-1912).
Hargreaves,Hargreaves,Moon,18.00,-2.18,64.09,"Planetographic, +East, -180 - 180","Crater, craters",Approved,"Frederick James; British astronomer, optician (1891-1970)."
Harkhebi,Harkhebi,Moon,337.14,40.87,98.74,"Planetographic, +East, -180 - 180","Crater, craters",Approved,Egyptian astronomer (c. 300 B.C.).
Harlan,Harlan,Moon,63.45,-38.31,79.65,"Planetographic, +East, -180 - 180","Crater, craters",Approved,Harlan James Smith; American astronomer (1924-1991).
Harold,Harold,Moon,1.43,-10.88,-6.07,"Planetographic, +East, -180 - 180","Crater, craters",Approved,Scandinavian male name.
Harpalus,Harpalus,Moon,39.77,52.73,-43.49,"Planetographic, +East, -180 - 180","Crater, craters",Approved,Greek astronomer (unkn-c. 460 B.C.).
Harriot,Harriot,Moon,52.77,33.20,114.40,"Planetographic, +East, -180 - 180","Crater, craters",Approved,"Thomas; British mathematician, astronomer (1560-1621)."
Hartmann,Hartmann,Moon,63.29,2.71,135.45,"Planetographic, +East, -180 - 180","Crater, craters",Approved,Johannes Franz; German astronomer (1865-1936).
Hartwig,Hartwig,Moon,78.46,-6.14,-80.47,"Planetographic, +East, -180 - 180","Crater, craters",Approved,(Carl) Ernst (Albrecht); German astronomer (1851-1923).
Harvey,Harvey,Moon,59.98,19.35,-146.51,"Planetographic, +East, -180 - 180","Crater, craters",Approved,William; British doctor (1578-1657).
Hase,Hase,Moon,82.08,-29.37,62.68,"Planetographic, +East, -180 - 180","Crater, craters",Approved,Johann Matthias; German mathematician (1684-1742).
Haskin,Haskin,Moon,66.57,81.51,133.16,"Planetographic, +East, -180 - 180","Crater, craters",Approved,"Larry A.; American chemist, geochemist (1934-2005)."
Hatanaka,Hatanaka,Moon,30.15,29.33,-121.92,"Planetographic, +East, -180 - 180","Crater, craters",Approved,Takeo; Japanese astronomer (1914-1963).
Hausen,Hausen,Moon,163.24,-65.11,-88.49,"Planetographic, +East, -180 - 180","Crater, craters",Approved,"Christian August; German astronomer, mathematician, physicist (1693-1743)."
Hawke,Hawke,Moon,13.20,-66.61,128.65,"Planetographic, +East, -180 - 180","Crater, craters",Approved,Bernard Ray; American lunar scientist (1946-2015).
Haworth,Haworth,Moon,51.42,-87.45,-5.17,"Planetographic, +East, -180 - 180","Crater, craters",Approved,"Sir Walter Norman; English chemist, 1937 Nobel Prize winner for chemistry (1883-1950)."
Hayford,Hayford,Moon,28.15,12.68,-176.45,"Planetographic, +East, -180 - 180","Crater, craters",Approved,"John Fillmore; American civil engineer, geodesist (1868-1925)."
Hayn,Hayn,Moon,86.21,64.56,83.87,"Planetographic, +East, -180 - 180","Crater, craters",Approved,Friedrich Karl; German astronomer (1863-1928).
Healy,Healy,Moon,37.98,32.50,-111.00,"Planetographic, +East, -180 - 180","Crater, craters",Approved,Roy; American rocketry scientist (1915-1968).
Heaviside,Heaviside,Moon,164.46,-10.44,166.77,"Planetographic, +East, -180 - 180","Crater, craters",Approved,"Oliver; British mathematician, physicist (1850-1925)."
Hecataeus,Hecataeus,Moon,133.67,-22.06,79.68,"Planetographic, +East, -180 - 180","Crater, craters",Approved,Greek geographer (unkn-c. 476 B.C.).
Hédervári,Hedervari,Moon,74.14,-81.77,85.60,"Planetographic, +East, -180 - 180","Crater, craters",Approved,Peter; Hungarian geoscientist (1931-1984).
Hedin,Hedin,Moon,157.38,2.87,-76.57,"Planetographic, +East, -180 - 180","Crater, craters",Approved,Sven Anders; Swedish explorer (1865-1952).
Hegu,Hegu,Moon,2.20,-46.30,177.57,"Planetographic, +East, -180 - 180","Crater, craters",Approved,"Constellation name in the ancient Chinese star map, which contains the star Altair, also known as Niulang, the cowherd who marries Zhinyu in the Chinese folk tale “The Cowherd and the Weaver Girl.”"
Heinrich,Heinrich,Moon,6.86,24.84,-15.37,"Planetographic, +East, -180 - 180","Crater, craters",Approved,Wladimir Wáclav; Czechoslovakian astronomer (1884-1965).
Heinsius,Heinsius,Moon,64.87,-39.48,-17.82,"Planetographic, +East, -180 - 180","Crater, craters",Approved,Gottfried; German astronomer (1709-1769).
Heis,Heis,Moon,13.69,32.47,-31.98,"Planetographic, +East, -180 - 180","Crater, craters",Approved,Eduard; German astronomer (1806-1877).
Helberg,Helberg,Moon,61.93,22.63,-102.46,"Planetographic, +East, -180 - 180","Crater, craters",Approved,Robert J.; American aeronautical engineer (1906-1967).
Helicon,Helicon,Moon,23.74,40.43,-23.11,"Planetographic, +East, -180 - 180","Crater, craters",Approved,"Greek astronomer, mathematician (fl. c. 361 B.C.)."
